stop_id,stop_code,stop_name,stop_desc,stop_lat,stop_lon,zone_id,stop_url,location_type
1001,1001,Longs Champs,Rennes,48.12903716,-1.6325079,,,0
1002,1002,Bouzat,Rennes,48.12826604,-1.63765619,,,0
1003,1003,Gallets,Rennes,48.12744122,-1.64029002,,,0
1004,1004,Donzelot,Rennes,48.12528847,-1.64253775,,,0
1005,1005,Mirabeau,Rennes,48.12312711,-1.64683091,,,0
1006,1006,Turmel,Rennes,48.12226258,-1.65069568,,,0
1007,1007,Assomption,Rennes,48.12141888,-1.65505801,,,0
1008,1008,Painlevé,Rennes,48.12317413,-1.6602443,,,0
1009,1009,Metz Volney,Rennes,48.12162483,-1.6631771,,,0
1010,1010,Guéhenno,Rennes,48.11917574,-1.66765915,,,0
1011,1011,Fac de Droit,Rennes,48.11830509,-1.67120349,,,0
1012,1012,Sévigné,Rennes,48.11618009,-1.67409822,,,0
1014,1014,Sainte-Anne,Rennes,48.11371103,-1.67903599,,,0
1015,1015,Champ Jacquet,Rennes,48.11252173,-1.68031651,,,0
1016,1016,République Nemours,Rennes,48.11007256,-1.6801671,,,0
1017,1017,Les Halles,Rennes,48.10834873,-1.6801754,,,0
1018,1018,Plélo Colombier,Rennes,48.10604754,-1.68160006,,,0
1019,1019,Cité Judiciaire,Rennes,48.1051576,-1.68471093,,,0
1020,1020,Mermoz,Rennes,48.09739351,-1.68956282,,,0
1021,1021,Cité Judiciaire,Rennes,48.10550614,-1.68388047,,,0
1022,1022,Plélo Colombier,Rennes,48.10622878,-1.68080951,,,0
1023,1023,Les Halles,Rennes,48.10798151,-1.68011595,,,0
1024,1024,République Nemours,Rennes,48.10997886,-1.68021216,,,0
1025,1025,Champ Jacquet,Rennes,48.11273566,-1.68025817,,,0
1026,1026,Sainte-Anne,Rennes,48.11478452,-1.67927843,,,0
1027,1027,Hôtel Dieu,Rennes,48.11723114,-1.67736823,,,0
1028,1028,Sévigné,Rennes,48.11750653,-1.67360984,,,0
1029,1029,Fac de Droit,Rennes,48.11831975,-1.66969704,,,0
1030,1030,Guéhenno,Rennes,48.11947818,-1.66685122,,,0
1031,1031,Metz Volney,Rennes,48.1220044,-1.66224129,,,0
1032,1032,Painlevé,Rennes,48.12331854,-1.65932809,,,0
1033,1033,Assomption,Rennes,48.12132369,-1.65499372,,,0
1034,1034,Turmel,Rennes,48.12221902,-1.65061867,,,0
1035,1035,Mirabeau,Rennes,48.12370157,-1.64529281,,,0
1036,1036,Donzelot,Rennes,48.12553894,-1.64212893,,,0
1037,1037,Gallets,Rennes,48.12774029,-1.6400201,,,0
1038,1038,Bouzat,Rennes,48.12826339,-1.6372655,,,0
1039,1039,Longs Champs,Rennes,48.12901691,-1.63243041,,,0
1040,1040,Donelière,Rennes,48.13006097,-1.6843352,,,0
1041,1041,Trois Croix,Rennes,48.12884165,-1.68371536,,,0
1042,1042,Cimetière Nord,Rennes,48.12442016,-1.68178832,,,0
1043,1043,Saint-Martin,Rennes,48.12359497,-1.68417898,,,0
1044,1044,IUFM,Rennes,48.12224848,-1.68585015,,,0
1046,1046,Anatole France,Rennes,48.11822289,-1.6893522,,,0
1047,1047,La Touche,Rennes,48.11617754,-1.69116733,,,0
1048,1048,Brest Verdun,Rennes,48.11334584,-1.69345994,,,0
1049,1049,Horizons,Rennes,48.11168311,-1.68948939,,,0
1050,1050,Les Lices,Rennes,48.11173644,-1.68701739,,,0
1051,1051,Place de Bretagne,Rennes,48.10985855,-1.68327915,,,0
1052,1052,République,Rennes,48.10989306,-1.67887428,,,0
1054,1054,Liberté TNB,Rennes,48.10755037,-1.67508432,,,0
1055,1055,Champs Libres,Rennes,48.1053351,-1.67389232,,,0
1056,1056,Gares,Rennes,48.10398974,-1.67213136,,,0
1057,1057,Laënnec,Rennes,48.10521928,-1.66612986,,,0
1060,1060,Piré,Rennes,48.09952833,-1.65755292,,,0
1061,1061,Bourgeois,Rennes,48.09733006,-1.65433141,,,0
1062,1062,Calmette,Rennes,48.09512646,-1.65055801,,,0
1063,1063,Monsieur Vincent,Rennes,48.0927684,-1.64749794,,,0
1064,1064,Lycée Descartes,Rennes,48.09035104,-1.64502494,,,0
1065,1065,La Poterie,Rennes,48.08758723,-1.64393705,,,0
1066,1066,Monnet,Rennes,48.08780025,-1.63864028,,,0
1067,1067,Bourgueil,Rennes,48.08943166,-1.63541842,,,0
1068,1068,Gohier,Rennes,48.09201511,-1.63642544,,,0
1069,1069,Ronceray,Rennes,48.09270737,-1.63967507,,,0
1070,1070,CARSAT,Rennes,48.09445007,-1.63799813,,,0
1071,1071,Haut Sancé,Rennes,48.09618325,-1.63701996,,,0
1072,1072,CARSAT,Rennes,48.09499328,-1.63793817,,,0
1073,1073,Ronceray,Rennes,48.09257263,-1.63966324,,,0
1074,1074,Gohier,Rennes,48.09187613,-1.63629215,,,0
1075,1075,Bourgueil,Rennes,48.08949401,-1.63543734,,,0
1076,1076,Monnet,Rennes,48.08799285,-1.6383059,,,0
1077,1077,La Poterie,Rennes,48.08744064,-1.64342249,,,0
1078,1078,Lycée Descartes,Rennes,48.08988552,-1.64471493,,,0
1079,1079,Monsieur Vincent,Rennes,48.09274252,-1.64724001,,,0
1080,1080,Calmette,Rennes,48.09595121,-1.65158599,,,0
1081,1081,Bourgeois,Rennes,48.09800207,-1.65534604,,,0
1082,1082,Piré,Rennes,48.09989659,-1.65781416,,,0
1085,1085,Laënnec,Rennes,48.10473325,-1.66565625,,,0
1086,1086,Gares,Rennes,48.10400352,-1.67201145,,,0
1087,1087,Champs Libres,Rennes,48.1060299,-1.67410184,,,0
1088,1088,Liberté TNB,Rennes,48.10744897,-1.67491383,,,0
1090,1090,République,Rennes,48.10952605,-1.6779074,,,0
1091,1091,Place de Bretagne,Rennes,48.10977886,-1.68388248,,,0
1092,1092,Les Lices,Rennes,48.11176633,-1.68626625,,,0
1093,1093,Horizons,Rennes,48.11174332,-1.68956204,,,0
1094,1094,Brest Verdun,Rennes,48.11309647,-1.69338394,,,0
1095,1095,La Touche,Rennes,48.11646144,-1.69082908,,,0
1096,1096,Anatole France,Rennes,48.11820647,-1.68928315,,,0
1097,1097,IUFM,Rennes,48.12102062,-1.68680476,,,0
1099,1099,Saint-Martin,Rennes,48.12361631,-1.68364233,,,0
1100,1100,Cimetière Nord,Rennes,48.12493528,-1.68198209,,,0
1101,1101,Trois Croix,Rennes,48.1272746,-1.68322628,,,0
1102,1102,Donelière,Rennes,48.13115995,-1.68458083,,,0
1103,1103,Saint-Laurent,Rennes,48.13880017,-1.65921311,,,0
1104,1104,Hôtel de Région,Rennes,48.13478815,-1.65854932,,,0
1105,1105,Héronière,Rennes,48.13555,-1.65569436,,,0
1106,1106,Gayeulles Piscine,Rennes,48.13436418,-1.65216944,,,0
1107,1107,Le Blizz,Rennes,48.13086934,-1.65210388,,,0
1108,1108,Gayeulles,Rennes,48.12838797,-1.652168,,,0
1109,1109,Joliot-Curie,Rennes,48.12565933,-1.65187375,,,0
1110,1110,Lycée Chateaubriand,Rennes,48.12415499,-1.65162006,,,0
1111,1111,Docteur Quentin,Rennes,48.12024278,-1.65071004,,,0
1112,1112,Vitré Danton,Rennes,48.11890008,-1.65092835,,,0
1113,1113,Jeanne d'Arc,Rennes,48.11635262,-1.65563088,,,0
1114,1114,Durafour,Rennes,48.11447379,-1.65800938,,,0
1115,1115,Oberthur,Rennes,48.11349726,-1.66127497,,,0
1116,1116,Saint-Vincent,Rennes,48.11274314,-1.6643851,,,0
1117,1117,Châteaudun,Rennes,48.11249213,-1.66685313,,,0
1118,1118,Thabor,Rennes,48.11175864,-1.67121493,,,0
1119,1119,Place Pasteur,Rennes,48.11054175,-1.67489145,,,0
1120,1120,République Jaurès,Rennes,48.10998229,-1.67785697,,,0
1121,1121,Charles de Gaulle,Rennes,48.10607067,-1.6777658,,,0
1122,1122,Gare Sud Féval,Rennes,48.10306416,-1.67682716,,,0
1123,1123,Ginguené,Rennes,48.09916061,-1.67570108,,,0
1124,1124,Jacques Cartier,Rennes,48.09733551,-1.67557993,,,0
1125,1125,Sacrés Coeurs,Rennes,48.09690529,-1.67914824,,,0
1126,1126,Garigliano,Rennes,48.09602989,-1.68166781,,,0
1127,1127,Frères Moines,Rennes,48.09306489,-1.68187605,,,0
1128,1128,Champs Manceaux,Rennes,48.09103622,-1.68211341,,,0
1129,1129,Suède,Rennes,48.08727486,-1.68239903,,,0
1130,1130,Canada,Rennes,48.08520713,-1.6824849,,,0
1131,1131,Bosphore,Rennes,48.08270511,-1.68238429,,,0
1132,1132,Alma,Rennes,48.08233466,-1.67787162,,,0
1133,1133,Bosphore,Rennes,48.08214018,-1.68253603,,,0
1134,1134,Canada,Rennes,48.08517813,-1.68230743,,,0
1135,1135,Suède,Rennes,48.08807548,-1.68221434,,,0
1136,1136,Champs Manceaux,Rennes,48.09113663,-1.68208194,,,0
1137,1137,Frères Moines,Rennes,48.09359701,-1.68186938,,,0
1138,1138,Garigliano,Rennes,48.09634749,-1.68161522,,,0
1139,1139,Sacrés Coeurs,Rennes,48.09695782,-1.67850697,,,0
1140,1140,Jacques Cartier,Rennes,48.0974129,-1.67476592,,,0
1141,1141,Ginguené,Rennes,48.09927814,-1.67561799,,,0
1142,1142,Gare Sud Féval,Rennes,48.10133802,-1.67625716,,,0
1143,1143,Charles de Gaulle,Rennes,48.10608092,-1.67760115,,,0
1144,1144,République Jaurès,Rennes,48.11006929,-1.67780478,,,0
1146,1146,Thabor,Rennes,48.11187283,-1.67113003,,,0
1147,1147,Saint-Vincent,Rennes,48.11271566,-1.66439614,,,0
1148,1148,Oberthur,Rennes,48.11341058,-1.66141539,,,0
1149,1149,Durafour,Rennes,48.114256,-1.65873929,,,0
1150,1150,Jeanne d'Arc,Rennes,48.11652806,-1.65552519,,,0
1151,1151,Vitré Danton,Rennes,48.11879169,-1.65161883,,,0
1152,1152,Docteur Quentin,Rennes,48.12043354,-1.65067299,,,0
1153,1153,Lycée Chateaubriand,Rennes,48.12443929,-1.651497,,,0
1154,1154,Joliot-Curie,Rennes,48.12608523,-1.65181703,,,0
1155,1155,Gayeulles,Rennes,48.12916578,-1.65210189,,,0
1156,1156,Le Blizz,Rennes,48.13185588,-1.65200229,,,0
1157,1157,Gayeulles Piscine,Rennes,48.13494543,-1.65205906,,,0
1158,1158,Héronière,Rennes,48.13553883,-1.6562051,,,0
1159,1159,Hôtel de Région,Rennes,48.13439404,-1.65875427,,,0
1160,1160,Tournebride,Rennes,48.11405936,-1.63721639,,,0
1161,1161,Plaine de Baud,Rennes,48.11231131,-1.64429105,,,0
1162,1162,Pont de Strasbourg,Rennes,48.1103356,-1.65597542,,,0
1163,1163,Robidou,Rennes,48.11033226,-1.66038997,,,0
1164,1164,Pont de Châteaudun,Rennes,48.11010638,-1.66677694,,,0
1165,1165,Paul Bert,Rennes,48.11006169,-1.67017835,,,0
1166,1166,Musée Beaux Arts,Rennes,48.10988328,-1.67512929,,,0
1167,1167,République Pré Botté,Rennes,48.10936738,-1.678658,,,0
1168,1168,République,Rennes,48.10980866,-1.67882417,,,0
1169,1169,Musée Beaux Arts,Rennes,48.10985334,-1.67452094,,,0
1170,1170,Paul Bert,Rennes,48.11003344,-1.66907214,,,0
1171,1171,Pont de Châteaudun,Rennes,48.11003759,-1.66487302,,,0
1172,1172,Robidou,Rennes,48.10982991,-1.65941692,,,0
1173,1173,Pont de Strasbourg,Rennes,48.11010843,-1.65620664,,,0
1174,1174,Plaine de Baud,Rennes,48.11258402,-1.64286132,,,0
1175,1175,Beaulieu Chimie,Rennes,48.11698398,-1.63390592,,,0
1176,1176,Beaulieu INSA,Rennes,48.11901733,-1.63514782,,,0
1177,1177,Beaulieu Restau. U.,Rennes,48.12187978,-1.640286,,,0
1178,1178,Beaulieu Cité U.,Rennes,48.12078326,-1.64386488,,,0
1179,1179,Jeanne d'Arc,Rennes,48.11698403,-1.65584808,,,0
1180,1180,Balzac,Rennes,48.1161613,-1.65932935,,,0
1181,1181,Musset Cité U.,Rennes,48.11619453,-1.66258994,,,0
1182,1182,George Sand,Rennes,48.11625003,-1.66505828,,,0
1183,1183,Hôtel Dieu,Rennes,48.11735546,-1.67855043,,,0
1184,1184,Dinan,Rennes,48.11717158,-1.68158998,,,0
1185,1185,Legraverend,Rennes,48.11767912,-1.68484515,,,0
1186,1186,Anatole France,Rennes,48.11853287,-1.68815907,,,0
1187,1187,Maison Diocésaine,Rennes,48.11402889,-1.69825899,,,0
1188,1188,La Salle,Rennes,48.11498492,-1.70208633,,,0
1189,1189,Languedoc,Rennes,48.11603293,-1.70563932,,,0
1190,1190,Villejean-Churchill,Rennes,48.11740687,-1.70825224,,,0
1191,1191,Languedoc,Rennes,48.11557372,-1.70472339,,,0
1192,1192,La Salle,Rennes,48.11489023,-1.70129713,,,0
1193,1193,Maison Diocésaine,Rennes,48.11377696,-1.6980212,,,0
1194,1194,Anatole France,Rennes,48.1182104,-1.68720155,,,0
1195,1195,Legraverend,Rennes,48.11776089,-1.6850048,,,0
1196,1196,Dinan,Rennes,48.11720567,-1.68231994,,,0
1197,1197,Sévigné,Rennes,48.11640279,-1.67325639,,,0
1198,1198,George Sand,Rennes,48.11631466,-1.66888706,,,0
1199,1199,Musset Cité U.,Rennes,48.11620028,-1.66290006,,,0
1200,1200,Jeanne d'Arc,Rennes,48.11682755,-1.6563862,,,0
1201,1201,Vitré Foulon,Rennes,48.11911266,-1.64919701,,,0
1202,1202,Beaulieu Cité U.,Rennes,48.12062049,-1.64433521,,,0
1203,1203,Beaulieu Restau. U.,Rennes,48.12203302,-1.6395994,,,0
1204,1204,Beaulieu INSA,Rennes,48.11947653,-1.63539005,,,0
1205,1205,Veyettes,Rennes,48.09712076,-1.62923032,,,0
1206,1206,Tremblaie,Rennes,48.10015773,-1.6315419,,,0
1207,1207,Pré Garel,Rennes,48.10349005,-1.63459292,,,0
1208,1208,Saint-Saëns,Rennes,48.10411631,-1.63768938,,,0
1209,1209,Pavie,Rennes,48.10500817,-1.64456415,,,0
1210,1210,Cimetière de l'Est,Rennes,48.10429184,-1.64969605,,,0
1211,1211,Serpette,Rennes,48.10317679,-1.65251241,,,0
1212,1212,Mouézy,Rennes,48.10191268,-1.65652502,,,0
1213,1213,Croix Saint-Hélier,Rennes,48.10287126,-1.66143906,,,0
1214,1214,République,Rennes,48.10990137,-1.6796669,,,0
1216,1216,Le Mail,Rennes,48.10918893,-1.69030518,,,0
1217,1217,Chèques Postaux,Rennes,48.10845176,-1.69364366,,,0
1218,1218,Guilloux Lorient,Rennes,48.10910111,-1.69795527,,,0
1219,1219,Papeteries,Rennes,48.10824735,-1.70376126,,,0
1220,1220,Kerviler,Rennes,48.10914313,-1.70638498,,,0
1221,1221,Géniaux,Rennes,48.10886589,-1.71061365,,,0
1222,1222,Stade Rennais,Rennes,48.10807385,-1.71396182,,,0
1223,1223,Le Hô,Rennes,48.10622123,-1.72383097,,,0
1224,1224,Robinot de St Cyr,Rennes,48.10306403,-1.72335303,,,0
1225,1225,Jardin Moderne,Rennes,48.10218214,-1.72623505,,,0
1226,1226,Servigné,Rennes,48.10122369,-1.73169411,,,0
1229,1229,Servigné,Rennes,48.10118185,-1.73162775,,,0
1230,1230,Jardin Moderne,Rennes,48.10210977,-1.72691496,,,0
1231,1231,Robinot de St Cyr,Rennes,48.10328122,-1.72333208,,,0
1232,1232,Le Hô,Rennes,48.10625606,-1.72374575,,,0
1233,1233,Lemaistre,Rennes,48.10704452,-1.72187845,,,0
1234,1234,Stade Rennais,Rennes,48.10775888,-1.71484897,,,0
1235,1235,Géniaux,Rennes,48.10892663,-1.70977108,,,0
1236,1236,Kerviler,Rennes,48.10881331,-1.7056153,,,0
1237,1237,Papeteries,Rennes,48.10773621,-1.70211405,,,0
1238,1238,Guilloux Lorient,Rennes,48.10869591,-1.69884796,,,0
1239,1239,Chèques Postaux,Rennes,48.10814248,-1.6948685,,,0
1240,1240,Le Mail,Rennes,48.10927186,-1.68970708,,,0
1242,1242,République,Rennes,48.10980333,-1.6795219,,,0
1243,1243,Croix Saint-Hélier,Rennes,48.10254897,-1.66111869,,,0
1244,1244,Mouézy,Rennes,48.10229227,-1.65513195,,,0
1245,1245,Serpette,Rennes,48.10313609,-1.65250463,,,0
1246,1246,Cimetière de l'Est,Rennes,48.10439597,-1.64934184,,,0
1247,1247,Pavie,Rennes,48.10491097,-1.64382886,,,0
1248,1248,Saint-Saëns,Rennes,48.10398522,-1.63598216,,,0
1249,1249,Pré Garel,Rennes,48.1035598,-1.63465287,,,0
1250,1250,Tremblaie,Rennes,48.09978888,-1.63129425,,,0
1251,1251,Veyettes,Rennes,48.09707862,-1.62913256,,,0
1252,1252,Patton,Rennes,48.13876768,-1.66595729,,,0
1253,1253,Monts d'Arrée,Rennes,48.13666007,-1.66750822,,,0
1254,1254,Neruda,Rennes,48.13675375,-1.67105825,,,0
1255,1255,Condate,Rennes,48.13455033,-1.67297749,,,0
1256,1256,Bellangerais,Rennes,48.13264262,-1.67175832,,,0
1257,1257,Morbihan,Rennes,48.13269574,-1.66757286,,,0
1258,1258,Houx Cité U.,Rennes,48.13080831,-1.66390739,,,0
1259,1259,Rochester,Rennes,48.12800553,-1.6645754,,,0
1260,1260,Gros Chêne,Rennes,48.12670281,-1.66538386,,,0
1261,1261,Volney,Rennes,48.12528168,-1.66666402,,,0
1262,1262,Jules Ferry,Rennes,48.12147137,-1.67091812,,,0
1263,1263,Rectorat,Rennes,48.11963635,-1.67422912,,,0
1264,1264,Pont de Nantes,Rennes,48.10211461,-1.68438725,,,0
1265,1265,Foyer Rennais,Rennes,48.0997896,-1.68708791,,,0
1266,1266,Mermoz,Rennes,48.09708914,-1.68902834,,,0
1267,1267,Félix Eboué,Rennes,48.0857359,-1.69390359,,,0
1268,1268,Boberil,Rennes,48.08376367,-1.69360406,,,0
1269,1269,Lycée Bréquigny,Rennes,48.08423941,-1.69207225,,,0
1270,1270,Félix Eboué,Rennes,48.08578354,-1.69404539,,,0
1273,1273,Saint-Yves,Rennes,48.09269072,-1.69127533,,,0
1274,1274,Pilate,Rennes,48.09503109,-1.69000293,,,0
1275,1275,Mermoz,Rennes,48.09745816,-1.6885901,,,0
1276,1276,Foyer Rennais,Rennes,48.09970592,-1.68624612,,,0
1277,1277,Pont de Nantes,Rennes,48.1021686,-1.68416325,,,0
1278,1278,Hôtel Dieu,Rennes,48.11709412,-1.67786765,,,0
1279,1279,Rectorat,Rennes,48.11946401,-1.67448311,,,0
1280,1280,Jules Ferry,Rennes,48.12141907,-1.67087311,,,0
1281,1281,Volney,Rennes,48.12528439,-1.66636805,,,0
1282,1282,Gros Chêne,Rennes,48.12661538,-1.66533269,,,0
1283,1283,Rochester,Rennes,48.12879195,-1.663837,,,0
1284,1284,Houx Cité U.,Rennes,48.13105022,-1.66440004,,,0
1285,1285,Morbihan,Rennes,48.13277864,-1.66759846,,,0
1286,1286,Bellangerais,Rennes,48.13270956,-1.67234326,,,0
1287,1287,Condate,Rennes,48.13491655,-1.67283484,,,0
1288,1288,Neruda,Rennes,48.13668515,-1.67074244,,,0
1289,1289,Monts d'Arrée,Rennes,48.13658555,-1.66756896,,,0
1290,1290,Clos Courtel,Rennes,48.12688601,-1.62954442,,,0
1291,1291,IUT,Rennes,48.12475494,-1.63388413,,,0
1292,1292,Beaulieu Restau. U.,Rennes,48.12145018,-1.63814809,,,0
1293,1293,Guilloux,Rennes,48.10992139,-1.69863394,,,0
1294,1294,Marbeuf,Rennes,48.11140799,-1.70136408,,,0
1295,1295,Berger,Rennes,48.11673996,-1.70463882,,,0
1296,1296,Université,Rennes,48.11928534,-1.70455594,,,0
1297,1297,Villejean-Université,Rennes,48.12180414,-1.70378405,,,0
1298,1298,IRTS,Rennes,48.12559159,-1.70307124,,,0
1299,1299,Olympe de Gouges,Rennes,48.12785166,-1.70290899,,,0
1300,1300,Cucillé,Rennes,48.12858619,-1.69873296,,,0
1301,1301,Préfecture,Rennes,48.12819455,-1.69396394,,,0
1302,1302,Léonard,Rennes,48.13149428,-1.69172852,,,0
1303,1303,Préfecture,Rennes,48.12832572,-1.69414225,,,0
1304,1304,Cucillé,Rennes,48.12850845,-1.69887415,,,0
1305,1305,Olympe de Gouges,Rennes,48.12765808,-1.70324184,,,0
1306,1306,IRTS,Rennes,48.12533687,-1.70312933,,,0
1307,1307,Villejean-Université,Rennes,48.12192614,-1.70388916,,,0
1308,1308,Université,Rennes,48.11892068,-1.70465808,,,0
1309,1309,Berger,Rennes,48.11673461,-1.70477296,,,0
1310,1310,Marbeuf,Rennes,48.11122281,-1.70080917,,,0
1311,1311,Guilloux,Rennes,48.10966101,-1.69838195,,,0
1312,1312,Beaulieu Chimie,Rennes,48.1166495,-1.63393042,,,0
1313,1313,Beaulieu Restau. U.,Rennes,48.12187502,-1.63834696,,,0
1314,1314,IUT,Rennes,48.1250923,-1.63309609,,,0
1315,1315,République,Rennes,48.10969693,-1.67808112,,,0
1316,1316,Raison,Rennes,48.10120612,-1.65296379,,,0
1317,1317,Villebois-Mareuil,Rennes,48.10013961,-1.64938444,,,0
1318,1318,Landry,Rennes,48.09914749,-1.64597327,,,0
1319,1319,Domaine,Rennes,48.09705567,-1.64164476,,,0
1320,1320,CARSAT,Rennes,48.09498429,-1.63725113,,,0
1321,1321,Sauvaie,Rennes,48.09387292,-1.63388391,,,0
1322,1322,Sauvaie,Rennes,48.09430784,-1.63474285,,,0
1323,1323,CARSAT,Rennes,48.09543821,-1.63808487,,,0
1324,1324,Domaine,Rennes,48.09761101,-1.6424202,,,0
1325,1325,Landry,Rennes,48.09943332,-1.64672508,,,0
1326,1326,Villebois-Mareuil,Rennes,48.10121174,-1.64962683,,,0
1327,1327,Raison,Rennes,48.10137672,-1.65366515,,,0
1328,1328,Lycée Mendès France,Rennes,48.1332141,-1.68528827,,,0
1329,1329,IUFM,Rennes,48.12163125,-1.6832374,,,0
1330,1330,Auberge de Jeunesse,Rennes,48.1203716,-1.68159095,,,0
1331,1331,Square de la Rance,Rennes,48.11797136,-1.68074546,,,0
1333,1333,Jacques Cartier,Rennes,48.09774726,-1.67519921,,,0
1334,1334,Châtillon,Rennes,48.09775842,-1.67128426,,,0
1335,1335,Ormeaux,Rennes,48.09773962,-1.66834901,,,0
1336,1336,Bigot de Préameneu,Rennes,48.09802171,-1.66646307,,,0
1337,1337,Sainte-Thérèse,Rennes,48.09759286,-1.66295336,,,0
1338,1338,Leray,Rennes,48.095015,-1.66158209,,,0
1339,1339,Langevin,Rennes,48.09472542,-1.65865006,,,0
1340,1340,Gide,Rennes,48.09203054,-1.65841246,,,0
1341,1341,Landrel,Rennes,48.09126172,-1.65460419,,,0
1342,1342,Pologne,Rennes,48.09120234,-1.65177341,,,0
1343,1343,La Poterie,Rennes,48.08760897,-1.64596836,,,0
1344,1344,Galicie,Rennes,48.08766529,-1.65003592,,,0
1345,1345,Sainte-Elisabeth,Rennes,48.08488149,-1.65113631,,,0
1346,1346,Hôpital Sud,Rennes,48.08468763,-1.65512833,,,0
1347,1347,Torigné,Rennes,48.0847348,-1.6578097,,,0
1348,1348,Tage,Rennes,48.08362139,-1.66384619,,,0
1349,1349,Douro,Rennes,48.08367369,-1.66817147,,,0
1350,1350,Portugal,Rennes,48.08358341,-1.67230489,,,0
1351,1351,Douro,Rennes,48.08348914,-1.6673577,,,0
1352,1352,Tage,Rennes,48.08346404,-1.66326727,,,0
1353,1353,Torigné,Rennes,48.08455564,-1.65800916,,,0
1354,1354,Hôpital Sud,Rennes,48.08448592,-1.65324443,,,0
1355,1355,Sainte-Elisabeth,Rennes,48.08492855,-1.65085793,,,0
1356,1356,Galicie,Rennes,48.08753214,-1.64998384,,,0
1358,1358,Pologne,Rennes,48.09136825,-1.65190911,,,0
1359,1359,Landrel,Rennes,48.09143755,-1.6556288,,,0
1360,1360,Gide,Rennes,48.09241999,-1.65836606,,,0
1361,1361,Langevin,Rennes,48.09421028,-1.65822788,,,0
1362,1362,Leray,Rennes,48.09508001,-1.661534,,,0
1363,1363,Sainte-Thérèse,Rennes,48.09744233,-1.66265748,,,0
1364,1364,Bigot de Préameneu,Rennes,48.09802421,-1.6670823,,,0
1365,1365,Ormeaux,Rennes,48.09771617,-1.6691678,,,0
1366,1366,Châtillon,Rennes,48.09775635,-1.67110913,,,0
1367,1367,Rennes Mairie,Rennes,48.1109799,-1.67952017,,,0
1368,1368,Square de la Rance,Rennes,48.11837352,-1.68060609,,,0
1369,1369,Auberge de Jeunesse,Rennes,48.12026611,-1.68107001,,,0
1370,1370,IUFM,Rennes,48.12202159,-1.68362206,,,0
1371,1371,Lycée Mendès France,Rennes,48.13300291,-1.68506819,,,0
1372,1372,Saint-Laurent,Rennes,48.13840918,-1.65907086,,,0
1373,1373,Hôtel de Région,Rennes,48.13520527,-1.65938653,,,0
1374,1374,Longs Prés,Rennes,48.13324759,-1.65693216,,,0
1375,1375,Gast,Rennes,48.13013692,-1.65672512,,,0
1376,1376,Europe,Rennes,48.12855272,-1.65712399,,,0
1377,1377,Trégain,Rennes,48.12679292,-1.65854407,,,0
1378,1378,Saint-Exupéry,Rennes,48.12493298,-1.66135545,,,0
1379,1379,Inkermann,Rennes,48.10591112,-1.68865396,,,0
1380,1380,Mabilais,Rennes,48.10521431,-1.690759,,,0
1381,1381,Malakoff,Rennes,48.10508381,-1.69426018,,,0
1382,1382,Voltaire,Rennes,48.10510437,-1.69871692,,,0
1383,1383,Dargent,Rennes,48.10360722,-1.70009111,,,0
1384,1384,Champion de Cicé,Rennes,48.10261975,-1.70382543,,,0
1385,1385,De Lesseps,Rennes,48.10069087,-1.70697779,,,0
1386,1386,Guérinais,Rennes,48.09893482,-1.70535446,,,0
1387,1387,Récipon,Rennes,48.09801007,-1.70819232,,,0
1388,1388,Montand,Rennes,48.099342,-1.7111775,,,0
1389,1389,Clinique La Sagesse,Rennes,48.101218,-1.71182929,,,0
1390,1390,Cleunay,Rennes,48.10413591,-1.71347582,,,0
1391,1391,Clinique La Sagesse,Rennes,48.1008831,-1.71163792,,,0
1392,1392,Montand,Rennes,48.09988042,-1.71123897,,,0
1393,1393,Récipon,Rennes,48.09789624,-1.70765735,,,0
1394,1394,Guérinais,Rennes,48.09900079,-1.70550837,,,0
1395,1395,De Lesseps,Rennes,48.10101371,-1.70702001,,,0
1396,1396,Champion de Cicé,Rennes,48.10225768,-1.70499098,,,0
1397,1397,Dargent,Rennes,48.10361769,-1.70028046,,,0
1398,1398,Voltaire,Rennes,48.10518896,-1.69863023,,,0
1399,1399,Malakoff,Rennes,48.10497612,-1.69402181,,,0
1400,1400,Mabilais,Rennes,48.10541286,-1.68984796,,,0
1401,1401,Inkermann,Rennes,48.10562192,-1.68776692,,,0
1402,1402,Cité Judiciaire,Rennes,48.10558068,-1.68517914,,,0
1403,1403,Saint-Exupéry,Rennes,48.12522631,-1.66100436,,,0
1404,1404,Trégain,Rennes,48.12676756,-1.65850144,,,0
1405,1405,Europe,Rennes,48.12834453,-1.65714602,,,0
1406,1406,Gast,Rennes,48.13074039,-1.65650905,,,0
1407,1407,Longs Prés,Rennes,48.13305845,-1.65670003,,,0
1408,1408,Vitré Péguy,Rennes,48.11971485,-1.65129628,,,0
1409,1409,Joliot-Curie,Rennes,48.12687028,-1.65316527,,,0
1410,1410,Hélias,Rennes,48.1364873,-1.66253723,,,0
1411,1411,Bellangerais,Rennes,48.13216463,-1.67290099,,,0
1412,1412,Cours Kennedy,Rennes,48.12134176,-1.70777107,,,0
1413,1413,Villejean-Churchill,Rennes,48.11858799,-1.70802098,,,0
1414,1414,Merlin,Rennes,48.11638524,-1.71215936,,,0
1415,1415,Chambre Agriculture,Rennes,48.11486396,-1.71300633,,,0
1416,1416,Atalante Champeaux,Rennes,48.11351144,-1.71436637,,,0
1417,1417,Les Arts,Rennes,48.11145919,-1.71338901,,,0
1418,1418,Géniaux,Rennes,48.10927667,-1.71025994,,,0
1419,1419,Les Arts,Rennes,48.11116252,-1.71291833,,,0
1420,1420,Atalante Champeaux,Rennes,48.11367266,-1.71259041,,,0
1421,1421,Chambre Agriculture,Rennes,48.11470189,-1.71562282,,,0
1422,1422,Merlin,Rennes,48.11628685,-1.71146403,,,0
1423,1423,Villejean-Churchill,Rennes,48.11853035,-1.70811008,,,0
1424,1424,Cours Kennedy,Rennes,48.12127977,-1.707884,,,0
1425,1425,Trois Croix,Rennes,48.12797869,-1.68252125,,,0
1426,1426,Bellangerais,Rennes,48.1320738,-1.67269097,,,0
1427,1427,Hélias,Rennes,48.13642057,-1.6633124,,,0
1428,1428,Hôtel de Région,Rennes,48.13448589,-1.65867078,,,0
1429,1429,Joliot-Curie,Rennes,48.1276684,-1.65098708,,,0
1430,1430,Painlevé,Rennes,48.12365829,-1.65939845,,,0
1431,1431,Vitré Péguy,Rennes,48.11949083,-1.65103423,,,0
1432,1432,Vitré Foulon,Rennes,48.11876913,-1.64990717,,,0
1433,1433,Durafour Strasbourg,Rennes,48.1135831,-1.65659822,,,0
1434,1434,Pont de Strasbourg,Rennes,48.10936608,-1.65519006,,,0
1435,1435,Chardonnet,Rennes,48.10569627,-1.6506541,,,0
1436,1436,Cimetière de l'Est,Rennes,48.10363132,-1.64975904,,,0
1437,1437,Villebois-Mareuil,Rennes,48.1010717,-1.64974907,,,0
1438,1438,Le Dantec,Rennes,48.09922272,-1.65285037,,,0
1439,1439,Bourgeois,Rennes,48.09826154,-1.65516705,,,0
1440,1440,Le Blosne,Rennes,48.08773094,-1.6538492,,,0
1441,1441,Triangle,Rennes,48.08606219,-1.66094033,,,0
1442,1442,Binquenais,Rennes,48.09159334,-1.66740233,,,0
1443,1443,Binquenais Collège,Rennes,48.09158704,-1.66232917,,,0
1444,1444,Combes,Rennes,48.09355955,-1.6696482,,,0
1445,1445,Clemenceau,Rennes,48.09317349,-1.67460613,,,0
1446,1446,Argonautes,Rennes,48.09039394,-1.67491188,,,0
1447,1447,Henri Fréville,Rennes,48.08731589,-1.6750163,,,0
1448,1448,Alma,Rennes,48.08135858,-1.67974932,,,0
1449,1449,Norvège,Rennes,48.08682379,-1.6830757,,,0
1450,1450,Coubertin,Rennes,48.08665851,-1.68837187,,,0
1451,1451,Lycée Bréquigny,Rennes,48.08683442,-1.69127348,,,0
1452,1452,Bréquigny Piscine,Rennes,48.08985957,-1.69106434,,,0
1453,1453,Pigeon Blanc,Saint-Jacques-de-la-Lande,48.08974508,-1.69303206,,,0
1454,1454,Bréquigny Piscine,Rennes,48.08951181,-1.69119492,,,0
1455,1455,Lycée Bréquigny,Rennes,48.086731,-1.69104325,,,0
1456,1456,Coubertin,Rennes,48.08658018,-1.68739623,,,0
1457,1457,Norvège,Rennes,48.08679431,-1.6838896,,,0
1458,1458,Alma,Rennes,48.08266999,-1.67691923,,,0
1459,1459,Henri Fréville,Rennes,48.08806135,-1.67431956,,,0
1460,1460,Argonautes,Rennes,48.08931088,-1.67426442,,,0
1461,1461,Clemenceau,Rennes,48.09370634,-1.67389974,,,0
1462,1462,Combes,Rennes,48.09349655,-1.67010012,,,0
1463,1463,Binquenais Collège,Rennes,48.09136388,-1.66318406,,,0
1464,1464,Binquenais,Rennes,48.09133996,-1.66629008,,,0
1465,1465,Triangle,Rennes,48.08611757,-1.66106774,,,0
1466,1466,Hôpital Sud,Rennes,48.08504293,-1.65390233,,,0
1467,1467,Le Blosne,Rennes,48.08755873,-1.65341696,,,0
1468,1468,La Poterie,Rennes,48.0874137,-1.64537126,,,0
1469,1469,Le Dantec,Rennes,48.099269,-1.6525768,,,0
1470,1470,Villebois-Mareuil,Rennes,48.10058076,-1.65031144,,,0
1471,1471,Cimetière de l'Est,Rennes,48.10372382,-1.6494711,,,0
1472,1472,Chardonnet,Rennes,48.10714408,-1.65097,,,0
1473,1473,Pont de Strasbourg,Rennes,48.11069919,-1.65567097,,,0
1474,1474,Durafour Strasbourg,Rennes,48.11351559,-1.65671606,,,0
1475,1475,Clos Courtel,Rennes,48.12695887,-1.62918033,,,0
1476,1476,Pont de Châteaudun,Rennes,48.11028761,-1.66447784,,,0
1477,1477,Gares,Rennes,48.10388016,-1.67284842,,,0
1479,1479,Pont de Châteaudun,Rennes,48.10986363,-1.66539605,,,0
1480,1480,Gaudinais,Rennes,48.13202871,-1.63503782,,,0
1481,1481,ZAC Saint-Sulpice,Rennes,48.12981846,-1.64241093,,,0
1483,1483,ZAC Saint-Sulpice,Rennes,48.12955581,-1.64358619,,,0
1484,1484,Gaudinais,Rennes,48.13185966,-1.63589821,,,0
1485,1485,Saint-Laurent,Rennes,48.13797172,-1.65873598,,,0
1486,1486,Hôtel de Région,Rennes,48.13482757,-1.65983208,,,0
1487,1487,Patton Gast,Rennes,48.13141313,-1.66229111,,,0
1489,1489,Patton Gast,Rennes,48.13230626,-1.66158898,,,0
1490,1490,Hôtel de Région,Rennes,48.13593467,-1.65918915,,,0
1491,1491,Saint-Laurent,Rennes,48.13884258,-1.65836842,,,0
1492,1492,Grand Quartier,Rennes,48.13384612,-1.69386845,,,0
1493,1493,Lycée Basch,Rennes,48.12727674,-1.69336524,,,0
1494,1494,Villejean-Université,Rennes,48.12125283,-1.70296746,,,0
1495,1495,Lycée Basch,Rennes,48.12663856,-1.69309309,,,0
1496,1496,Lande du Breil,Rennes,48.13229483,-1.70970111,,,0
1497,1497,Villejean-Université,Rennes,48.12102411,-1.70300103,,,0
1498,1498,Petit Champeaux,Rennes,48.11658191,-1.72390238,,,0
1499,1499,Colin,Rennes,48.11626024,-1.71595794,,,0
1500,1500,Agrocampus,Rennes,48.11386976,-1.7054062,,,0
1501,1501,République Pré Botté,Rennes,48.10936833,-1.6797666,,,0
1502,1502,Agrocampus,Rennes,48.1132726,-1.7045588,,,0
1503,1503,Colin,Rennes,48.11616144,-1.71594912,,,0
1504,1504,Petit Champeaux,Rennes,48.11640851,-1.72328108,,,0
1506,1506,Berthault,Rennes,48.10648051,-1.73143819,,,0
1507,1507,Lycée Zola,Rennes,48.10936967,-1.67512421,,,0
1508,1508,Berthault,Rennes,48.10673486,-1.7291459,,,0
1509,1509,Henri Fréville,Rennes,48.08810982,-1.67444972,,,0
1510,1510,Henri Fréville,Rennes,48.08777947,-1.67446532,,,0
1511,1511,La Poterie,Rennes,48.08753912,-1.64345457,,,0
1513,1513,Bois Perrin,Rennes,48.11548204,-1.64846012,,,0
1514,1514,Moulin de Joué,Rennes,48.11333583,-1.64760506,,,0
1515,1515,Moulin de Joué,Rennes,48.11350079,-1.64755396,,,0
1516,1516,Bois Perrin,Rennes,48.11595285,-1.64840733,,,0
1517,1517,Berry,Rennes,48.11854026,-1.71363649,,,0
1518,1518,Bourbonnais,Rennes,48.12062672,-1.71046453,,,0
1519,1519,Villejean-Université,Rennes,48.12110069,-1.70297631,,,0
1520,1520,Bourbonnais,Rennes,48.12050245,-1.70973991,,,0
1521,1521,Berry,Rennes,48.11845974,-1.71376004,,,0
1522,1522,Piletière,Rennes,48.11392882,-1.642818,,,0
1523,1523,Moulin de Joué,Rennes,48.11454875,-1.6499529,,,0
1524,1524,Hôpital Régnier,Rennes,48.11467385,-1.65135039,,,0
1525,1525,Durafour Strasbourg,Rennes,48.11355265,-1.6567289,,,0
1526,1526,Hôpital Régnier,Rennes,48.11479096,-1.65317793,,,0
1527,1527,Moulin de Joué,Rennes,48.11433481,-1.64920718,,,0
1528,1528,Piletière,Rennes,48.11399429,-1.64435828,,,0
1529,1529,Villejean-Université,Rennes,48.12118964,-1.70297204,,,0
1530,1530,ZAC Saint-Sulpice,Rennes,48.12899468,-1.64272897,,,0
1532,1532,Joliot-Curie,Rennes,48.12705844,-1.65273754,,,0
1533,1533,La Poterie,Rennes,48.08760009,-1.64346288,,,0
1534,1534,Henri Fréville,Rennes,48.08831453,-1.67444337,,,0
1535,1535,Portugal,Rennes,48.0837789,-1.67237599,,,0
1536,1536,Clos Courtel,Rennes,48.12680571,-1.6300959,,,0
1537,1537,Léonard,Rennes,48.13157496,-1.69170144,,,0
1539,1539,Lemaistre,Rennes,48.10723127,-1.72306614,,,0
1540,1540,Pont de Bretagne,Rennes,48.1099522,-1.68519001,,,0
1542,1542,Pont de Bretagne,Rennes,48.10997275,-1.68535336,,,0
1543,1543,Léonard,Rennes,48.13134643,-1.69183512,,,0
1545,1545,Cleunay Stade,Rennes,48.10158842,-1.70882131,,,0
1546,1546,Cleunay Stade,Rennes,48.1015875,-1.70843797,,,0
1547,1547,Etangs d'Apigné,Rennes,48.0919831,-1.73781141,,,0
1548,1548,Etangs d'Apigné,Rennes,48.09212157,-1.73732729,,,0
1550,1550,République,Rennes,48.10969793,-1.67797331,,,0
1551,1551,République,Rennes,48.10989761,-1.67826219,,,0
1552,1552,Place Pasteur,Rennes,48.11068847,-1.67369302,,,0
1553,1553,Villejean-Université,Rennes,48.1213441,-1.70243715,,,0
1554,1554,Binquenais Le Moine,Rennes,48.09073427,-1.66120535,,,0
1555,1555,Fossés,Rennes,48.11329571,-1.67522943,,,0
1556,1556,République,Rennes,48.10943229,-1.67763328,,,0
1560,1560,Bourgeois,Rennes,48.09778841,-1.65664596,,,0
1561,1561,Langevin,Rennes,48.09601273,-1.65801002,,,0
1563,1563,République,Rennes,48.10969683,-1.67818363,,,0
1564,1564,Henri Fréville,Rennes,48.08782223,-1.67459024,,,0
1566,1566,Lycée Basch,Rennes,48.1253701,-1.69257643,,,0
1568,1568,Kennedy Guyenne,Rennes,48.1210724,-1.71352003,,,0
1569,1569,Collège Rosa-Parks,Rennes,48.12252507,-1.71573621,,,0
1570,1570,Coeur de Courrouze,Rennes,48.09847141,-1.69753083,,,0
1571,1571,Coeur de Courrouze,Rennes,48.09828989,-1.69938898,,,0
1572,1572,Vincennes,Rennes,48.1179832,-1.67522707,,,0
1573,1573,Mermoz,Rennes,48.09706881,-1.69029866,,,0
1574,1574,Binquenais Le Moine,Rennes,48.0907957,-1.66114259,,,0
1576,1576,Villejean-Anjou,Rennes,48.12283295,-1.71367718,,,0
1577,1577,Triangle,Rennes,48.08670616,-1.66104123,,,0
1584,1584,Marbeuf,Rennes,48.11176502,-1.70288352,,,0
1585,1585,Le Blosne,Rennes,48.08804865,-1.65434919,,,0
1586,1586,Beauregard,Rennes,48.13150706,-1.69450613,,,0
1587,1587,Cité Judiciaire,Rennes,48.10591461,-1.68440513,,,0
1588,1588,Jules Maniez,Rennes,48.09801934,-1.70369434,,,0
1589,1589,Jules Maniez,Rennes,48.0979352,-1.70398528,,,0
1590,1590,Jules Verne,Rennes,48.09965675,-1.69416651,,,0
1591,1591,Jules Verne,Rennes,48.09884079,-1.69501787,,,0
1593,1593,Cleunay,Rennes,48.10342833,-1.71290524,,,0
1594,1594,Kennedy Guyenne,Rennes,48.12110265,-1.71342459,,,0
1596,1596,Clothilde Vautier,Rennes,48.12586082,-1.66846226,,,0
1603,1603,Les Préales,Rennes,48.11336387,-1.63977859,,,0
1604,1604,Les Préales,Rennes,48.11352598,-1.63956403,,,0
1606,1606,Hoche,Rennes,48.1156969,-1.67669897,,,0
1608,1608,Collège Cleunay,Rennes,48.099228,-1.708417,,,0
1611,1611,Inkermann,Rennes,48.105497,-1.688386,,,0
1612,1612,Saint-Conwoïon,Rennes,48.104179,-1.688163,,,0
1613,1613,Saint-Conwoïon,Rennes,48.103777,-1.688527,,,0
1614,1614,Assomption,Rennes,48.122266,-1.657133,,,0
1615,1615,République,Rennes,48.109793,-1.678379,,,0
2002,2002,Cesson Hôpital Privé,Cesson-Sévigné,48.13023269,-1.62752844,,,0
2003,2003,Cesson Hôpital Privé,Cesson-Sévigné,48.13011385,-1.62802968,,,0
2005,2005,Grand Domaine,Cesson-Sévigné,48.12449724,-1.59420301,,,0
2006,2006,Petits Champs,Cesson-Sévigné,48.12522678,-1.59652827,,,0
2007,2007,Bourgchevreuil,Cesson-Sévigné,48.12311351,-1.6005581,,,0
2008,2008,La Coulée,Cesson-Sévigné,48.12358605,-1.60438229,,,0
2009,2009,Fontenelle,Cesson-Sévigné,48.12352951,-1.60813346,,,0
2010,2010,Mare Pavée,Cesson-Sévigné,48.12279943,-1.61089689,,,0
2011,2011,Maison d'Accueil,Cesson-Sévigné,48.12112468,-1.60992947,,,0
2012,2012,Muguet,Cesson-Sévigné,48.11844317,-1.60843003,,,0
2013,2013,Vilaine,Cesson-Sévigné,48.11643917,-1.60735329,,,0
2014,2014,Place Sévigné,Cesson-Sévigné,48.11468124,-1.60966321,,,0
2015,2015,Hublais,Cesson-Sévigné,48.11422249,-1.616313,,,0
2016,2016,Taillis,Cesson-Sévigné,48.11418172,-1.62194938,,,0
2017,2017,Champs Péans,Cesson-Sévigné,48.11408545,-1.63036724,,,0
2018,2018,Tournebride,Cesson-Sévigné,48.11398483,-1.636133,,,0
2019,2019,Champs Péans,Cesson-Sévigné,48.1140789,-1.62801107,,,0
2020,2020,Taillis,Cesson-Sévigné,48.11415,-1.62183892,,,0
2021,2021,Hublais,Cesson-Sévigné,48.11421456,-1.61375483,,,0
2022,2022,Place Sévigné,Cesson-Sévigné,48.11467541,-1.60958194,,,0
2023,2023,Vilaine,Cesson-Sévigné,48.11604857,-1.60696924,,,0
2024,2024,Muguet,Cesson-Sévigné,48.11832639,-1.60841984,,,0
2025,2025,Maison d'Accueil,Cesson-Sévigné,48.12123195,-1.6099523,,,0
2026,2026,Mare Pavée,Cesson-Sévigné,48.1227656,-1.61084009,,,0
2027,2027,Fontenelle,Cesson-Sévigné,48.12349148,-1.60818399,,,0
2028,2028,La Coulée,Cesson-Sévigné,48.12353418,-1.60409505,,,0
2029,2029,Bourgchevreuil,Cesson-Sévigné,48.12314683,-1.60062832,,,0
2030,2030,Petits Champs,Cesson-Sévigné,48.12481844,-1.5968293,,,0
2031,2031,Grand Domaine,Cesson-Sévigné,48.1239136,-1.59345217,,,0
2032,2032,ZI Sud-Est,Cesson-Sévigné,48.10649753,-1.62137125,,,0
2033,2033,Bas Village,Cesson-Sévigné,48.1013897,-1.62358898,,,0
2034,2034,Forum,Cesson-Sévigné,48.0996197,-1.62114642,,,0
2035,2035,Forum,Cesson-Sévigné,48.09961861,-1.62094448,,,0
2036,2036,Bas Village,Cesson-Sévigné,48.10118579,-1.62396139,,,0
2037,2037,Erbonière,Cesson-Sévigné,48.1060664,-1.62569408,,,0
2038,2038,Haut Grippé,Cesson-Sévigné,48.11496603,-1.59060111,,,0
2039,2039,Bordage,Cesson-Sévigné,48.11441474,-1.60044452,,,0
2040,2040,Chalotais,Cesson-Sévigné,48.11617658,-1.60046536,,,0
2041,2041,Cesson Collège,Cesson-Sévigné,48.12057734,-1.59948907,,,0
2042,2042,Les Lacs,Cesson-Sévigné,48.1246853,-1.61314833,,,0
2043,2043,Cormier,Cesson-Sévigné,48.12431542,-1.61844738,,,0
2044,2044,Belle Fontaine,Cesson-Sévigné,48.1273076,-1.62420233,,,0
2045,2045,Clos Courtel,Cesson-Sévigné,48.12734821,-1.62821813,,,0
2046,2046,Clos Courtel,Cesson-Sévigné,48.12733271,-1.62783456,,,0
2047,2047,Belle Fontaine,Cesson-Sévigné,48.12725633,-1.62413052,,,0
2048,2048,Cormier,Cesson-Sévigné,48.12449917,-1.61766913,,,0
2049,2049,Les Lacs,Cesson-Sévigné,48.12439647,-1.61407898,,,0
2050,2050,Cesson Collège,Cesson-Sévigné,48.12011703,-1.59927397,,,0
2051,2051,Chalotais,Cesson-Sévigné,48.11583582,-1.60065105,,,0
2052,2052,Saint-Etienne,Cesson-Sévigné,48.13114134,-1.59694891,,,0
2053,2053,Cesson Cimetière,Cesson-Sévigné,48.12632414,-1.59912797,,,0
2054,2054,Métairies Chalotais,Cesson-Sévigné,48.1231055,-1.60191712,,,0
2055,2055,Cesson Piscine,Cesson-Sévigné,48.12011007,-1.6022215,,,0
2056,2056,Cesson Mairie,Cesson-Sévigné,48.11849755,-1.60450404,,,0
2057,2057,Cesson Gare,Cesson-Sévigné,48.1138863,-1.60325405,,,0
2058,2058,Peupliers,Cesson-Sévigné,48.11260658,-1.60716704,,,0
2059,2059,Monniais,Cesson-Sévigné,48.10949381,-1.60888241,,,0
2060,2060,Rond Point de Bray,Cesson-Sévigné,48.10779161,-1.61466557,,,0
2061,2061,ZI Sud-Est,Cesson-Sévigné,48.1064024,-1.62126872,,,0
2062,2062,Rond Point de Bray,Cesson-Sévigné,48.10782767,-1.61408468,,,0
2063,2063,Monniais,Cesson-Sévigné,48.1093019,-1.60907341,,,0
2064,2064,Peupliers,Cesson-Sévigné,48.11257019,-1.60740614,,,0
2065,2065,Cesson Gare,Cesson-Sévigné,48.11382762,-1.60314125,,,0
2066,2066,Cesson Mairie,Cesson-Sévigné,48.11834687,-1.60420821,,,0
2067,2067,Cesson Piscine,Cesson-Sévigné,48.12037328,-1.60240598,,,0
2068,2068,Métairies Chalotais,Cesson-Sévigné,48.12317362,-1.60178843,,,0
2069,2069,Cesson Cimetière,Cesson-Sévigné,48.1262903,-1.59907117,,,0
2070,2070,Victoire,Cesson-Sévigné,48.14510684,-1.6086299,,,0
2071,2071,Calendrou,Cesson-Sévigné,48.14041547,-1.61679887,,,0
2072,2072,Calendrou,Cesson-Sévigné,48.14059929,-1.61647827,,,0
2073,2073,Victoire,Cesson-Sévigné,48.14510205,-1.60852174,,,0
2074,2074,Mare Pavée,Cesson-Sévigné,48.12353242,-1.611284,,,0
2075,2075,Mare Pavée,Cesson-Sévigné,48.12338128,-1.61123041,,,0
2076,2076,Lande Bouhard,Cesson-Sévigné,48.13406638,-1.6290629,,,0
2077,2077,Lande Bouhard,Cesson-Sévigné,48.13420321,-1.62879212,,,0
2079,2079,Verger,Cesson-Sévigné,48.12879761,-1.60595425,,,0
2080,2080,Gaudais,Cesson-Sévigné,48.12734995,-1.61277526,,,0
2081,2081,Bouriande,Cesson-Sévigné,48.1268256,-1.61994598,,,0
2082,2082,Bouriande,Cesson-Sévigné,48.12693602,-1.61988832,,,0
2083,2083,Gaudais,Cesson-Sévigné,48.12696193,-1.61439739,,,0
2084,2084,Verger,Cesson-Sévigné,48.12903982,-1.60483093,,,0
2085,2085,Champelé,Cesson-Sévigné,48.11613432,-1.58235705,,,0
2086,2086,Bordage,Cesson-Sévigné,48.11430452,-1.60048414,,,0
2088,2088,Base de Loisirs,Cesson-Sévigné,48.12467563,-1.59065314,,,0
2089,2089,Rigourdière,Cesson-Sévigné,48.11357206,-1.59052033,,,0
2091,2091,Lycée Sévigné,Cesson-Sévigné,48.11900542,-1.59819448,,,0
2101,2101,Saint-Etienne,Cesson-Sévigné,48.13172609,-1.59790195,,,0
2102,2102,Erbonière,Cesson-Sévigné,48.10616939,-1.62589863,,,0
2103,2103,Rigourdière,Cesson-Sévigné,48.11334833,-1.59001633,,,0
2104,2104,Haut Grippé,Cesson-Sévigné,48.11491856,-1.59042522,,,0
2105,2105,Chêne Germain,Cesson-Sévigné,48.13105332,-1.62462479,,,0
2106,2106,Champelé,Cesson-Sévigné,48.11603922,-1.58235125,,,0
2112,2112,Chêne Germain,Cesson-Sévigné,48.13075338,-1.62292888,,,0
2114,2114,Château de Vaux,Cesson-Sévigné,48.13737913,-1.62240807,,,0
2115,2115,Château de Vaux,Cesson-Sévigné,48.13735095,-1.62275039,,,0
2116,2116,Champs Blancs,Cesson-Sévigné,48.13488248,-1.62068447,,,0
2201,2201,Morinais,Saint-Jacques-de-la-Lande,48.07546225,-1.71635318,,,0
2202,2202,Collège Jean Moulin,Saint-Jacques-de-la-Lande,48.07734959,-1.71582209,,,0
2203,2203,Médiathèque,Saint-Jacques-de-la-Lande,48.07942003,-1.71567051,,,0
2204,2204,Jean Marin,Saint-Jacques-de-la-Lande,48.08256009,-1.71537221,,,0
2205,2205,Blosne,Saint-Jacques-de-la-Lande,48.08320903,-1.71019669,,,0
2206,2206,Gaité,Saint-Jacques-de-la-Lande,48.08751801,-1.70704222,,,0
2207,2207,Lilas,Saint-Jacques-de-la-Lande,48.09353291,-1.70134791,,,0
2208,2208,Commeurec,Saint-Jacques-de-la-Lande,48.09571589,-1.69476004,,,0
2209,2209,Commeurec,Saint-Jacques-de-la-Lande,48.09572605,-1.69450527,,,0
2210,2210,Lilas,Saint-Jacques-de-la-Lande,48.09335368,-1.70154725,,,0
2211,2211,Gaité,Saint-Jacques-de-la-Lande,48.08727159,-1.70734318,,,0
2212,2212,Blosne,Saint-Jacques-de-la-Lande,48.0844398,-1.70917627,,,0
2213,2213,Jean Marin,Saint-Jacques-de-la-Lande,48.0824956,-1.71540682,,,0
2214,2214,Médiathèque,Saint-Jacques-de-la-Lande,48.07988244,-1.71560415,,,0
2215,2215,Collège Jean Moulin,Saint-Jacques-de-la-Lande,48.0769585,-1.71590826,,,0
2216,2216,Pressoirs,Saint-Jacques-de-la-Lande,48.08728351,-1.69462978,,,0
2217,2217,25 Fusillés,Saint-Jacques-de-la-Lande,48.09062505,-1.69500771,,,0
2218,2218,Saint-Yves,Saint-Jacques-de-la-Lande,48.09238093,-1.69158421,,,0
2219,2219,Pilate,Saint-Jacques-de-la-Lande,48.09407071,-1.69057703,,,0
2220,2220,Gautrais,Saint-Jacques-de-la-Lande,48.06159325,-1.72409928,,,0
2221,2221,Rossel,Saint-Jacques-de-la-Lande,48.06306322,-1.72049195,,,0
2222,2222,Pommerais,Saint-Jacques-de-la-Lande,48.06640884,-1.72023927,,,0
2223,2223,Abbé Grimault,Saint-Jacques-de-la-Lande,48.06737644,-1.71701707,,,0
2224,2224,Morinais,Saint-Jacques-de-la-Lande,48.07507093,-1.71599542,,,0
2225,2225,Gaité,Saint-Jacques-de-la-Lande,48.08685877,-1.70571878,,,0
2226,2226,Rablais Allende,Saint-Jacques-de-la-Lande,48.08661806,-1.70136506,,,0
2227,2227,Croix Verte,Saint-Jacques-de-la-Lande,48.08942109,-1.69787874,,,0
2228,2228,Pigeon Blanc,Saint-Jacques-de-la-Lande,48.08980582,-1.69309127,,,0
2229,2229,Croix Verte,Saint-Jacques-de-la-Lande,48.08942708,-1.69792814,,,0
2230,2230,Rablais Allende,Saint-Jacques-de-la-Lande,48.08651151,-1.70200139,,,0
2231,2231,Gaité,Saint-Jacques-de-la-Lande,48.08691375,-1.70659822,,,0
2232,2232,Morinais,Saint-Jacques-de-la-Lande,48.07485603,-1.71573412,,,0
2233,2233,Abbé Grimault,Saint-Jacques-de-la-Lande,48.06738312,-1.71730011,,,0
2234,2234,Pommerais,Saint-Jacques-de-la-Lande,48.06642681,-1.72024087,,,0
2235,2235,Rossel,Saint-Jacques-de-la-Lande,48.06284909,-1.7206611,,,0
2236,2236,Parc Expo,Saint-Jacques-de-la-Lande,48.06002567,-1.7341661,,,0
2237,2237,Aire Libre Aéroport,Saint-Jacques-de-la-Lande,48.06734838,-1.72176227,,,0
2238,2238,Centre Météo,Saint-Jacques-de-la-Lande,48.06498115,-1.72459031,,,0
2239,2239,Haut Bois,Saint-Jacques-de-la-Lande,48.07782462,-1.71251488,,,0
2240,2240,Malraux,Saint-Jacques-de-la-Lande,48.08058042,-1.71235702,,,0
2241,2241,Malraux,Saint-Jacques-de-la-Lande,48.08052746,-1.71255409,,,0
2242,2242,Centre Météo,Saint-Jacques-de-la-Lande,48.06503505,-1.72459513,,,0
2243,2243,Aire Libre Aéroport,Saint-Jacques-de-la-Lande,48.06692895,-1.72233003,,,0
2244,2244,Parc Expo,Saint-Jacques-de-la-Lande,48.05988123,-1.73439523,,,0
2245,2245,Haut Bois,Saint-Jacques-de-la-Lande,48.07762901,-1.71267231,,,0
2248,2248,Bellevue,Saint-Jacques-de-la-Lande,48.07926184,-1.73304111,,,0
2249,2249,Le Pâtis,Saint-Jacques-de-la-Lande,48.08296961,-1.73167413,,,0
2250,2250,Reuzerais,Saint-Jacques-de-la-Lande,48.08669367,-1.7219974,,,0
2251,2251,Maffeys,Saint-Jacques-de-la-Lande,48.08662772,-1.7130712,,,0
2252,2252,Maffeys,Saint-Jacques-de-la-Lande,48.08662142,-1.71300337,,,0
2253,2253,Reuzerais,Saint-Jacques-de-la-Lande,48.08667716,-1.72218429,,,0
2254,2254,Le Pâtis,Saint-Jacques-de-la-Lande,48.08380838,-1.73009441,,,0
2255,2255,Bellevue,Saint-Jacques-de-la-Lande,48.07927938,-1.73326336,,,0
2257,2257,Pressoirs,Saint-Jacques-de-la-Lande,48.0870383,-1.69467527,,,0
2258,2258,Dominos,Saint-Jacques-de-la-Lande,48.09353659,-1.70433896,,,0
2260,2260,Dominos,Saint-Jacques-de-la-Lande,48.09343267,-1.70457002,,,0
2262,2262,Vallon,Saint-Jacques-de-la-Lande,48.06879203,-1.69785635,,,0
2263,2263,Jean Jaurès,Saint-Jacques-de-la-Lande,48.08257363,-1.71233295,,,0
2264,2264,Jean Jaurès,Saint-Jacques-de-la-Lande,48.08278771,-1.71306508,,,0
2265,2265,Gautrais,Saint-Jacques-de-la-Lande,48.06157743,-1.72404407,,,0
2267,2267,Auriol,Saint-Jacques-de-la-Lande,48.07528894,-1.7289858,,,0
2268,2268,Auriol,Saint-Jacques-de-la-Lande,48.07507222,-1.72879481,,,0
2271,2271,25 Fusillés,Saint-Jacques-de-la-Lande,48.09053717,-1.69493887,,,0
2301,2301,Bruz Centre,Bruz,48.02452888,-1.74523499,,,0
2302,2302,Herverie,Bruz,48.02485673,-1.7507341,,,0
2303,2303,Haut Launay,Bruz,48.02466598,-1.75723493,,,0
2304,2304,Rabine,Bruz,48.02572872,-1.76082474,,,0
2305,2305,Vert Buisson,Bruz,48.02937675,-1.758008,,,0
2306,2306,Cicé Blossac,Bruz,48.03364841,-1.7658388,,,0
2307,2307,Gavrinis,Bruz,48.03128037,-1.75948748,,,0
2308,2308,Croix Madame,Bruz,48.0413371,-1.75451324,,,0
2309,2309,Schuman,Bruz,48.04459244,-1.74645711,,,0
2311,2311,Coeur de Campus,Bruz,48.04726387,-1.74200594,,,0
2312,2312,Etangs,Bruz,48.04942067,-1.74051743,,,0
2313,2313,Lande du Pont,Bruz,48.05272866,-1.73833691,,,0
2314,2314,Porte de Ker-Lann,Bruz,48.05490967,-1.73965143,,,0
2315,2315,Lande du Pont,Bruz,48.0527925,-1.7383715,,,0
2316,2316,Etangs,Bruz,48.04936083,-1.74065996,,,0
2317,2317,Coeur de Campus,Bruz,48.04740124,-1.74208422,,,0
2319,2319,Schuman,Bruz,48.04454125,-1.7463853,,,0
2320,2320,Croix Madame,Bruz,48.04033666,-1.75517612,,,0
2321,2321,Gavrinis,Bruz,48.03121202,-1.75955139,,,0
2322,2322,Vert Buisson,Bruz,48.02941268,-1.75801123,,,0
2323,2323,Rabine,Bruz,48.02564107,-1.76076309,,,0
2324,2324,Haut Launay,Bruz,48.02463005,-1.7572317,,,0
2325,2325,Herverie,Bruz,48.02481885,-1.75055599,,,0
2326,2326,Doublé,Bruz,48.03414629,-1.72378519,,,0
2327,2327,Pont-Réan,Bruz,48.00482969,-1.77507929,,,0
2328,2328,Doublé,Bruz,48.03490665,-1.72460581,,,0
2329,2329,Croix Vaisserelle,Bruz,48.00916236,-1.77334982,,,0
2330,2330,Rabine,Bruz,48.02406274,-1.76166931,,,0
2331,2331,Noë,Bruz,48.0215012,-1.75234104,,,0
2332,2332,Epalet,Bruz,48.01951953,-1.74505273,,,0
2333,2333,Du Guesclin,Bruz,48.02094067,-1.73809815,,,0
2334,2334,Pasteur,Bruz,48.02378685,-1.73611312,,,0
2335,2335,Bobinais,Bruz,48.0262549,-1.73452897,,,0
2336,2336,Champ Niguel,Bruz,48.03021172,-1.73446075,,,0
2337,2337,Lavoisier,Bruz,48.03296043,-1.73309587,,,0
2338,2338,Lavoisier,Bruz,48.03327206,-1.7330462,,,0
2339,2339,Champ Niguel,Bruz,48.02837459,-1.73561585,,,0
2340,2340,Bobinais,Bruz,48.02603219,-1.73454161,,,0
2341,2341,Pasteur,Bruz,48.02366722,-1.73621021,,,0
2342,2342,Du Guesclin,Bruz,48.02092837,-1.73825365,,,0
2343,2343,Epalet,Bruz,48.01957851,-1.74458947,,,0
2344,2344,Noë,Bruz,48.02159325,-1.75228218,,,0
2345,2345,Rabine,Bruz,48.02383482,-1.76188545,,,0
2346,2346,Croix Vaisserelle,Bruz,48.00857085,-1.77378638,,,0
2347,2347,Pont-Réan,Bruz,48.00471646,-1.77520341,,,0
2348,2348,Victor Hugo,Bruz,48.02346099,-1.74333447,,,0
2350,2350,Mare de la Salle,Bruz,48.02934871,-1.71910978,,,0
2351,2351,Mare de la Salle,Bruz,48.02919301,-1.71962005,,,0
2353,2353,Victor Hugo,Bruz,48.0234105,-1.74310902,,,0
2359,2359,Doublé,Bruz,48.03571608,-1.72330707,,,0
2360,2360,Bruz Centre,Bruz,48.02494911,-1.74509798,,,0
2361,2361,Bruz Centre,Bruz,48.02442778,-1.7448362,,,0
2365,2365,Brossolette,Bruz,48.0204894,-1.74343786,,,0
2366,2366,Aire du 8 Mai,Bruz,48.02687763,-1.7455042,,,0
2367,2367,Anita Conti,Bruz,48.03335296,-1.7336016,,,0
2401,2401,Champ Devant,Betton,48.17703667,-1.65122928,,,0
2402,2402,Omblais,Betton,48.17926699,-1.65112944,,,0
2403,2403,Brocéliande,Betton,48.18066394,-1.65204781,,,0
2404,2404,Trégor,Betton,48.18305535,-1.64603174,,,0
2405,2405,Betton Mairie,Betton,48.18191274,-1.64173916,,,0
2406,2406,Betton Centre,Betton,48.18119826,-1.6380241,,,0
2407,2407,Haye Renaud Gare,Betton,48.18021328,-1.6348781,,,0
2408,2408,Marronniers,Betton,48.17623356,-1.63729111,,,0
2409,2409,Housset,Betton,48.17240013,-1.63735842,,,0
2410,2410,Enseigne Abbaye,Betton,48.17135339,-1.64196927,,,0
2411,2411,Betton Vallée,Betton,48.16179617,-1.64775716,,,0
2412,2412,Betton Vallée,Betton,48.16199698,-1.64746497,,,0
2413,2413,Enseigne Abbaye,Betton,48.17110928,-1.64175914,,,0
2414,2414,Housset,Betton,48.17259986,-1.63732208,,,0
2415,2415,Marronniers,Betton,48.17681478,-1.63718049,,,0
2416,2416,Haye Renaud Gare,Betton,48.18021697,-1.63478408,,,0
2417,2417,Betton Centre,Betton,48.18170386,-1.63855109,,,0
2418,2418,Betton Mairie,Betton,48.18191158,-1.64120022,,,0
2419,2419,Trégor,Betton,48.1831832,-1.64644735,,,0
2420,2420,Brocéliande,Betton,48.18060634,-1.65213707,,,0
2421,2421,Omblais,Betton,48.17922788,-1.65120686,,,0
2422,2422,Petite Hublais,Betton,48.18224318,-1.61598527,,,0
2423,2423,Cour Neuve,Betton,48.17542874,-1.62289518,,,0
2424,2424,Champ Giron,Betton,48.17098544,-1.62219591,,,0
2425,2425,Tihouït,Betton,48.16381455,-1.62508425,,,0
2426,2426,Tihouït,Betton,48.1641638,-1.62491276,,,0
2427,2427,Champ Giron,Betton,48.17040578,-1.62203733,,,0
2428,2428,Cour Neuve,Betton,48.17553811,-1.62286433,,,0
2429,2429,Petite Hublais,Betton,48.18209898,-1.61621525,,,0
2430,2430,Betton Rue de Rennes,Betton,48.17604547,-1.6395521,,,0
2431,2431,Mozart,Betton,48.18305974,-1.63721735,,,0
2432,2432,J.-Sébastien Bach,Betton,48.18633047,-1.63325395,,,0
2433,2433,Gentilhommière,Betton,48.19035731,-1.62607743,,,0
2434,2434,J.-Sébastien Bach,Betton,48.18635458,-1.63319375,,,0
2435,2435,Mozart,Betton,48.18305974,-1.63721735,,,0
2436,2436,Betton Rue de Rennes,Betton,48.17590175,-1.63953946,,,0
2437,2437,Betton Centre,Betton,48.18157224,-1.63928389,,,0
2438,2438,Mézières,Betton,48.1849863,-1.65009721,,,0
2439,2439,Renaudais,Betton,48.1786926,-1.65586322,,,0
2440,2440,Renaudais,Betton,48.17878617,-1.65554803,,,0
2441,2441,Mézières,Betton,48.18495407,-1.65000002,,,0
2442,2442,Pont Brand,Betton,48.17827841,-1.66071278,,,0
2443,2443,Pont Brand,Betton,48.17822808,-1.66061222,,,0
2448,2448,Trégor,Betton,48.18380616,-1.64642136,,,0
2449,2449,Trégor,Betton,48.18368939,-1.64641107,,,0
2450,2450,Gentilhommière,Betton,48.18980379,-1.62615025,,,0
2451,2451,Gentilhommière,Betton,48.19085557,-1.62920813,,,0
2501,2501,Noë Diolé,Le Rheu,48.10244741,-1.83230313,,,0
2502,2502,Lycée Monod,Le Rheu,48.1005527,-1.80657108,,,0
2503,2503,Champs Freslons,Le Rheu,48.09895196,-1.80139197,,,0
2504,2504,Brassens,Le Rheu,48.09897121,-1.79693897,,,0
2505,2505,Bouleaux,Le Rheu,48.10163022,-1.79451553,,,0
2506,2506,Genêts,Le Rheu,48.09931104,-1.79124998,,,0
2507,2507,Barberais,Le Rheu,48.09755056,-1.78133332,,,0
2508,2508,Les Pins,Le Rheu,48.09687556,-1.77558132,,,0
2509,2509,Pont d'Avoine,Le Rheu,48.09614161,-1.76472044,,,0
2510,2510,Plessix Saucourt,Le Rheu,48.10386756,-1.75043717,,,0
2511,2511,Plessix Saucourt,Le Rheu,48.10364127,-1.75113015,,,0
2512,2512,Pont d'Avoine,Le Rheu,48.09623468,-1.76464809,,,0
2513,2513,Les Pins,Le Rheu,48.09697566,-1.77595203,,,0
2514,2514,Barberais,Le Rheu,48.09763657,-1.78143531,,,0
2515,2515,Genêts,Le Rheu,48.09924523,-1.79065184,,,0
2516,2516,Bouleaux,Le Rheu,48.10177606,-1.79491908,,,0
2517,2517,Brassens,Le Rheu,48.0993953,-1.79670831,,,0
2518,2518,Champs Freslons,Le Rheu,48.09927491,-1.80209424,,,0
2519,2519,Lycée Monod,Le Rheu,48.10084549,-1.80690728,,,0
2520,2520,Noë Diolé,Le Rheu,48.1024447,-1.83105113,,,0
2521,2521,Gerhoui,Le Rheu,48.09102311,-1.78689214,,,0
2522,2522,Mahomat,Le Rheu,48.09401721,-1.77398903,,,0
2523,2523,Mahomat,Le Rheu,48.09407165,-1.77398049,,,0
2524,2524,Gerhoui,Le Rheu,48.09134708,-1.78557585,,,0
2525,2525,Haut Plessis,Le Rheu,48.07846,-1.77125189,,,0
2526,2526,Moigné,Le Rheu,48.08034971,-1.77444951,,,0
2529,2529,Moigné,Le Rheu,48.0803048,-1.77444546,,,0
2530,2530,Haut Plessis,Le Rheu,48.07879295,-1.77215639,,,0
2532,2532,Le Rheu Chêne Vert,Le Rheu,48.09383771,-1.7801899,,,0
2537,2537,Gaston Bardet,Le Rheu,48.10240737,-1.7873505,,,0
2538,2538,Gaston Bardet,Le Rheu,48.10227061,-1.78737929,,,0
2601,2601,Croix Malinge,Vern-sur-Seiche,48.03852387,-1.60247514,,,0
2602,2602,Bel Air,Vern-sur-Seiche,48.04342114,-1.60171837,,,0
2603,2603,La Poste,Vern-sur-Seiche,48.04468923,-1.60398268,,,0
2604,2604,Croix Rouge,Vern-sur-Seiche,48.04948516,-1.60615819,,,0
2605,2605,Fosse Gauchère,Vern-sur-Seiche,48.04944754,-1.60981381,,,0
2606,2606,Solidor,Vern-sur-Seiche,48.05064249,-1.61503808,,,0
2607,2607,Haute Abbaye,Vern-sur-Seiche,48.05261592,-1.61390616,,,0
2608,2608,Bretonnière,Vern-sur-Seiche,48.05927096,-1.61659799,,,0
2609,2609,Val d'Orson,Vern-sur-Seiche,48.06408177,-1.62309646,,,0
2610,2610,Garenne,Vern-sur-Seiche,48.06773616,-1.62575611,,,0
2611,2611,Hallerais,Vern-sur-Seiche,48.07239609,-1.62874628,,,0
2612,2612,Hallerais,Vern-sur-Seiche,48.07231682,-1.62869899,,,0
2613,2613,Garenne,Vern-sur-Seiche,48.0675792,-1.62562134,,,0
2614,2614,Val d'Orson,Vern-sur-Seiche,48.06399931,-1.62290098,,,0
2615,2615,Bretonnière,Vern-sur-Seiche,48.05902525,-1.61665722,,,0
2616,2616,Haute Abbaye,Vern-sur-Seiche,48.05258582,-1.61398421,,,0
2617,2617,Fosse Gauchère,Vern-sur-Seiche,48.04943835,-1.61103426,,,0
2618,2618,Croix Rouge,Vern-sur-Seiche,48.04914162,-1.6059535,,,0
2619,2619,La Poste,Vern-sur-Seiche,48.04461606,-1.60388168,,,0
2620,2620,Bel Air,Vern-sur-Seiche,48.04354743,-1.60171592,,,0
2621,2621,Vern La Touche,Vern-sur-Seiche,48.04090176,-1.60229224,,,0
2622,2622,Champ Martin,Vern-sur-Seiche,48.05981082,-1.61317591,,,0
2627,2627,Vaugon,Vern-sur-Seiche,48.03139221,-1.59951627,,,0
2628,2628,Vaugon,Vern-sur-Seiche,48.03125903,-1.59946437,,,0
2629,2629,Vern Eglise,Vern-sur-Seiche,48.04719054,-1.60258313,,,0
2630,2630,Maillardière,Vern-sur-Seiche,48.04502874,-1.59887396,,,0
2631,2631,Moulin,Vern-sur-Seiche,48.04763801,-1.59853624,,,0
2632,2632,Moulin,Vern-sur-Seiche,48.04805762,-1.59863994,,,0
2633,2633,Maillardière,Vern-sur-Seiche,48.0451444,-1.59868238,,,0
2634,2634,Vern Eglise,Vern-sur-Seiche,48.04709878,-1.60264331,,,0
2635,2635,Croix Malinge,Vern-sur-Seiche,48.03849842,-1.60220411,,,0
2637,2637,Solidor,Vern-sur-Seiche,48.049703,-1.61531908,,,0
2640,2640,Croix Malinge,Vern-sur-Seiche,48.03840649,-1.60224987,,,0
2641,2641,Champ Martin,Vern-sur-Seiche,48.05908101,-1.61293743,,,0
2701,2701,Janais,Noyal-Châtillon-sur-Seiche,48.05897113,-1.70107764,,,0
2702,2702,Vallon,Noyal-Châtillon-sur-Seiche,48.06829803,-1.69763551,,,0
2704,2704,Janais,Noyal-Châtillon-sur-Seiche,48.0593778,-1.70119071,,,0
2705,2705,Bray,Noyal-Châtillon-sur-Seiche,48.0289823,-1.65980879,,,0
2706,2706,Molène,Noyal-Châtillon-sur-Seiche,48.0384178,-1.67071213,,,0
2707,2707,Potiers,Noyal-Châtillon-sur-Seiche,48.04080291,-1.6719381,,,0
2708,2708,Centre,Noyal-Châtillon-sur-Seiche,48.04239861,-1.66565541,,,0
2709,2709,Salle Polyvalente,Noyal-Châtillon-sur-Seiche,48.0440963,-1.66126141,,,0
2710,2710,Petite Saudrais,Noyal-Châtillon-sur-Seiche,48.0471142,-1.66108375,,,0
2711,2711,Croix Fleurie,Noyal-Châtillon-sur-Seiche,48.05658786,-1.66382824,,,0
2712,2712,Mail Lancé,Noyal-Châtillon-sur-Seiche,48.06366666,-1.66376685,,,0
2713,2713,Petit Beaulieu,Noyal-Châtillon-sur-Seiche,48.06835652,-1.66575417,,,0
2714,2714,Hil-Bintinais,Noyal-Châtillon-sur-Seiche,48.07719318,-1.66114018,,,0
2715,2715,Hil-Bintinais,Noyal-Châtillon-sur-Seiche,48.07864103,-1.66122751,,,0
2716,2716,Petit Beaulieu,Noyal-Châtillon-sur-Seiche,48.0686191,-1.66595219,,,0
2717,2717,Mail Lancé,Noyal-Châtillon-sur-Seiche,48.06365395,-1.66385987,,,0
2718,2718,Croix Fleurie,Noyal-Châtillon-sur-Seiche,48.05597165,-1.66413694,,,0
2719,2719,Petite Saudrais,Noyal-Châtillon-sur-Seiche,48.04706769,-1.66111999,,,0
2720,2720,Salle Polyvalente,Noyal-Châtillon-sur-Seiche,48.0440836,-1.66135439,,,0
2721,2721,Centre,Noyal-Châtillon-sur-Seiche,48.04244672,-1.665579,,,0
2722,2722,Potiers,Noyal-Châtillon-sur-Seiche,48.04077157,-1.67212053,,,0
2723,2723,Molène,Noyal-Châtillon-sur-Seiche,48.03839894,-1.67062832,,,0
2724,2724,Bray,Noyal-Châtillon-sur-Seiche,48.02864041,-1.65979212,,,0
2725,2725,Guyomerais,Noyal-Châtillon-sur-Seiche,48.03959475,-1.67647149,,,0
2726,2726,Guyomerais,Noyal-Châtillon-sur-Seiche,48.03964698,-1.67673187,,,0
2727,2727,Pont,Noyal-Châtillon-sur-Seiche,48.03842301,-1.66656825,,,0
2728,2728,Centre,Noyal-Châtillon-sur-Seiche,48.04263154,-1.66614645,,,0
2729,2729,Croix de Pierre,Noyal-Châtillon-sur-Seiche,48.04695071,-1.66475295,,,0
2730,2730,Croix de Pierre,Noyal-Châtillon-sur-Seiche,48.04624051,-1.66470375,,,0
2731,2731,Centre,Noyal-Châtillon-sur-Seiche,48.04294494,-1.66597246,,,0
2732,2732,Pont,Noyal-Châtillon-sur-Seiche,48.03865705,-1.66680397,,,0
2733,2733,Côteaux,Noyal-Châtillon-sur-Seiche,48.03487037,-1.66409088,,,0
2734,2734,Côteaux,Noyal-Châtillon-sur-Seiche,48.03439807,-1.66349817,,,0
2749,2749,Touche Tizon,Noyal-Châtillon-sur-Seiche,48.05590393,-1.70113068,,,0
2750,2750,Monts Gaultier,Noyal-Châtillon-sur-Seiche,48.03925076,-1.68044618,,,0
2751,2751,Monts Gaultier,Noyal-Châtillon-sur-Seiche,48.03935445,-1.68010587,,,0
2801,2801,Grand Quartier,Saint-Grégoire,48.13580524,-1.69311343,,,0
2802,2802,Launay,Saint-Grégoire,48.13737527,-1.68786617,,,0
2803,2803,Launay,Saint-Grégoire,48.13739455,-1.6885143,,,0
2804,2804,Ricoquais,Saint-Grégoire,48.15906836,-1.67661716,,,0
2805,2805,Camus,Saint-Grégoire,48.15910748,-1.68130906,,,0
2806,2806,Vivier Louis,Saint-Grégoire,48.15898341,-1.68558847,,,0
2807,2807,Pontay,Saint-Grégoire,48.15984132,-1.6920985,,,0
2808,2808,Uttenreuth,Saint-Grégoire,48.15685741,-1.687347,,,0
2809,2809,Discalceat,Saint-Grégoire,48.15435098,-1.68667982,,,0
2810,2810,Paul-Emile Victor,Saint-Grégoire,48.15366867,-1.69204814,,,0
2811,2811,Cité des Jardins,Saint-Grégoire,48.15141645,-1.69133602,,,0
2812,2812,Forge,Saint-Grégoire,48.15091519,-1.68580896,,,0
2813,2813,Haut Trait,Saint-Grégoire,48.14748738,-1.68609731,,,0
2814,2814,CHP Saint-Grégoire,Saint-Grégoire,48.14290311,-1.68658457,,,0
2815,2815,La Plesse,Saint-Grégoire,48.13721048,-1.68638899,,,0
2816,2816,La Plesse,Saint-Grégoire,48.13819856,-1.68643094,,,0
2817,2817,CHP Saint-Grégoire,Saint-Grégoire,48.14303309,-1.68650406,,,0
2818,2818,Haut Trait,Saint-Grégoire,48.14687017,-1.68620414,,,0
2819,2819,Forge,Saint-Grégoire,48.15139757,-1.68591914,,,0
2820,2820,Cité des Jardins,Saint-Grégoire,48.15144553,-1.69128472,,,0
2821,2821,Paul-Emile Victor,Saint-Grégoire,48.15374931,-1.69201256,,,0
2822,2822,Discalceat,Saint-Grégoire,48.15471175,-1.68670333,,,0
2824,2824,Vivier Louis,Saint-Grégoire,48.15890153,-1.68514162,,,0
2825,2825,Camus,Saint-Grégoire,48.15914517,-1.68081392,,,0
2826,2826,Grand Quartier,Saint-Grégoire,48.13558496,-1.69298612,,,0
2827,2827,Maison Blanche,Saint-Grégoire,48.14906521,-1.65652284,,,0
2829,2829,Maison Blanche,Saint-Grégoire,48.14928398,-1.65646132,,,0
2830,2830,Grand Quartier,Saint-Grégoire,48.13432722,-1.69446334,,,0
2831,2831,Holywell,Saint-Grégoire,48.15358811,-1.67869141,,,0
2832,2832,Holywell,Saint-Grégoire,48.15462598,-1.67885041,,,0
2833,2833,Jean-Paul II,Saint-Grégoire,48.16021057,-1.67713605,,,0
2834,2834,Jean-Paul II,Saint-Grégoire,48.15986552,-1.67719977,,,0
2836,2836,Uttenreuth,Saint-Grégoire,48.15696733,-1.68730287,,,0
2837,2837,La Brosse,Saint-Grégoire,48.17692758,-1.7220151,,,0
2838,2838,Alphasis,Saint-Grégoire,48.15390935,-1.69690048,,,0
2839,2839,Alphasis,Saint-Grégoire,48.15439188,-1.69663974,,,0
2840,2840,MFR Rabinardières,Saint-Grégoire,48.17666382,-1.69027666,,,0
2841,2841,Parking scolaire Jean-Paul II,Saint-Grégoire,48.16047975,-1.67677367,,,0
2842,2842,Nobel,Saint-Grégoire,48.15810266,-1.67204924,,,0
2843,2843,Nobel,Saint-Grégoire,48.15835001,-1.67216992,,,0
2844,2844,Champ Daguet,Saint-Grégoire,48.15528555,-1.67143507,,,0
2846,2846,Ricoquais,Saint-Grégoire,48.15899258,-1.67633659,,,0
2901,2901,Croix aux Potiers,Chartres-de-Bretagne,48.04675983,-1.71061532,,,0
2902,2902,Croix aux Potiers,Chartres-de-Bretagne,48.04786309,-1.71352147,,,0
2903,2903,Chaussairie,Chartres-de-Bretagne,48.0332539,-1.71164902,,,0
2904,2904,Taillebois,Chartres-de-Bretagne,48.03694559,-1.71243488,,,0
2905,2905,Callouët,Chartres-de-Bretagne,48.04226025,-1.71208839,,,0
2906,2906,Croix aux Potiers,Chartres-de-Bretagne,48.0459329,-1.71017676,,,0
2907,2907,Croix aux Potiers,Chartres-de-Bretagne,48.04566035,-1.71043502,,,0
2908,2908,Callouët,Chartres-de-Bretagne,48.04140713,-1.712456,,,0
2909,2909,Taillebois,Chartres-de-Bretagne,48.03681768,-1.71247725,,,0
2911,2911,Parc de Loisirs,Chartres-de-Bretagne,48.03319414,-1.70728888,,,0
2912,2912,Argoat,Chartres-de-Bretagne,48.03551346,-1.70632588,,,0
2913,2913,Cornouaille,Chartres-de-Bretagne,48.03465949,-1.69950247,,,0
2914,2914,Vieux Bourg,Chartres-de-Bretagne,48.03691975,-1.69708216,,,0
2915,2915,Collège Pôle Sud,Chartres-de-Bretagne,48.04133261,-1.69832095,,,0
2916,2916,Auditoire,Chartres-de-Bretagne,48.04164779,-1.70262208,,,0
2917,2917,Chartres Centre,Chartres-de-Bretagne,48.04230372,-1.70649993,,,0
2918,2918,Callouët,Chartres-de-Bretagne,48.04201305,-1.71105813,,,0
2919,2919,Chartres Centre,Chartres-de-Bretagne,48.04229207,-1.70746679,,,0
2920,2920,Auditoire,Chartres-de-Bretagne,48.04158293,-1.70288204,,,0
2921,2921,Collège Pôle Sud,Chartres-de-Bretagne,48.04125573,-1.69776297,,,0
2922,2922,Vieux Bourg,Chartres-de-Bretagne,48.03705289,-1.69713431,,,0
2923,2923,Cornouaille,Chartres-de-Bretagne,48.03470268,-1.69977512,,,0
2924,2924,Argoat,Chartres-de-Bretagne,48.03549509,-1.70610918,,,0
2925,2925,Chaussairie,Chartres-de-Bretagne,48.03309275,-1.71162122,,,0
2926,2926,Collège Pôle Sud,Chartres-de-Bretagne,48.0416724,-1.69613307,,,0
2927,2927,Parc de Loisirs,Chartres-de-Bretagne,48.03317188,-1.70739442,,,0
2928,2928,Constant Mérel,Chartres-de-Bretagne,48.03144516,-1.70886705,,,0
2930,2930,Constant Mérel,Chartres-de-Bretagne,48.03121562,-1.70919607,,,0
2942,2942,Collège Pôle Sud,Chartres-de-Bretagne,48.04202434,-1.69612399,,,0
3001,3001,Gériatrie,Chantepie,48.08507081,-1.61034947,,,0
3002,3002,Deux Ruisseaux,Chantepie,48.08572691,-1.61407942,,,0
3003,3003,Bourgogne,Chantepie,48.08911849,-1.61263999,,,0
3004,3004,Hallouvry,Chantepie,48.09034405,-1.61586838,,,0
3005,3005,Chantepie Eglise,Chantepie,48.08822108,-1.61690724,,,0
3006,3006,Chantepie Mairie,Chantepie,48.08879928,-1.62054998,,,0
3007,3007,Loges,Chantepie,48.09040826,-1.62387938,,,0
3008,3008,Loges,Chantepie,48.09037236,-1.62410496,,,0
3009,3009,Chantepie Mairie,Chantepie,48.08841382,-1.61911707,,,0
3010,3010,Chantepie Eglise,Chantepie,48.08815767,-1.61691516,,,0
3011,3011,Hallouvry,Chantepie,48.09043747,-1.61532491,,,0
3012,3012,Bourgogne,Chantepie,48.08828194,-1.61236516,,,0
3013,3013,Deux Ruisseaux,Chantepie,48.08586495,-1.61469687,,,0
3014,3014,Breillou,Chantepie,48.09828412,-1.6227924,,,0
3015,3015,Breillou,Chantepie,48.09813047,-1.62296013,,,0
3016,3016,Cucé,Chantepie,48.09357018,-1.60760619,,,0
3017,3017,IDEFS,Chantepie,48.09253159,-1.61295139,,,0
3018,3018,Rocade Sud,Chantepie,48.08546585,-1.62716003,,,0
3019,3019,Val Blanc,Chantepie,48.08049112,-1.63080044,,,0
3020,3020,Val Blanc,Chantepie,48.08066866,-1.63064112,,,0
3021,3021,Rocade Sud,Chantepie,48.08461197,-1.62755612,,,0
3022,3022,Hallouvry,Chantepie,48.09104066,-1.61528333,,,0
3023,3023,IDEFS,Chantepie,48.0925691,-1.6129143,,,0
3024,3024,Martinière,Chantepie,48.0769249,-1.63186001,,,0
3025,3025,Martinière,Chantepie,48.07677535,-1.6317662,,,0
3027,3027,Touche Annette,Chantepie,48.08576141,-1.60813614,,,0
3028,3028,Rosa Parks,Chantepie,48.0857666,-1.6040872,,,0
3029,3029,Touche Annette,Chantepie,48.08573322,-1.60747448,,,0
3032,3032,Gériatrie,Chantepie,48.08517236,-1.61074847,,,0
3101,3101,Vergéal,Pacé,48.15527386,-1.78819351,,,0
3102,3102,Chêne Amoureux,Pacé,48.15130194,-1.79231921,,,0
3103,3103,Docteur Léon,Pacé,48.14925877,-1.78891407,,,0
3104,3104,Touche Milon,Pacé,48.14851135,-1.78489927,,,0
3105,3105,Pinault,Pacé,48.14754061,-1.78105296,,,0
3107,3107,Renan,Pacé,48.15119535,-1.7776255,,,0
3108,3108,Duchesse Anne,Pacé,48.15091641,-1.77205003,,,0
3109,3109,Pacé Cimetière,Pacé,48.14815857,-1.76980701,,,0
3110,3110,Carré Dumaine,Pacé,48.1457978,-1.77067127,,,0
3111,3111,Le Ponant,Pacé,48.14284411,-1.77014839,,,0
3112,3112,Opéra,Pacé,48.14112507,-1.76740703,,,0
3113,3113,Le Ponant,Pacé,48.14335637,-1.7704102,,,0
3114,3114,Carré Dumaine,Pacé,48.14572649,-1.77065135,,,0
3115,3115,Pacé Cimetière,Pacé,48.1479969,-1.7697924,,,0
3116,3116,Duchesse Anne,Pacé,48.15088755,-1.77187229,,,0
3117,3117,Renan,Pacé,48.15123454,-1.77754822,,,0
3119,3119,Pinault,Pacé,48.14754795,-1.78109404,,,0
3120,3120,Touche Milon,Pacé,48.1485353,-1.78475327,,,0
3121,3121,Docteur Léon,Pacé,48.1492868,-1.78888968,,,0
3122,3122,Chêne Amoureux,Pacé,48.15128452,-1.79230415,,,0
3123,3123,Chapitre,Pacé,48.17413905,-1.7893668,,,0
3124,3124,Chapitre,Pacé,48.17528483,-1.79000995,,,0
3125,3125,Pâtis Roussel,Pacé,48.16046526,-1.7679822,,,0
3126,3126,Ouessant,Pacé,48.15732007,-1.76573096,,,0
3127,3127,Champalaune,Pacé,48.1554893,-1.76463602,,,0
3128,3128,Pacé Collèges,Pacé,48.15407301,-1.77112297,,,0
3129,3129,Le Brix,Pacé,48.15071817,-1.77071191,,,0
3130,3130,Le Brix,Pacé,48.15155536,-1.77051816,,,0
3131,3131,Pacé Collèges,Pacé,48.15444095,-1.7704961,,,0
3132,3132,Champalaune,Pacé,48.15542425,-1.76468404,,,0
3133,3133,Ouessant,Pacé,48.15728468,-1.76571429,,,0
3134,3134,Nominoë,Pacé,48.14165529,-1.77056625,,,0
3135,3135,Nominoë,Pacé,48.14172254,-1.77090905,,,0
3136,3136,Pont Amelin,Pacé,48.15473271,-1.784426,,,0
3137,3137,Rive Ouest,Pacé,48.14024412,-1.76355626,,,0
3139,3139,Rive Ouest,Pacé,48.14020951,-1.76329723,,,0
3141,3141,Pont Amelin,Pacé,48.15471748,-1.78435726,,,0
3142,3142,Haute Rabine,Pacé,48.16738341,-1.78701515,,,0
3143,3143,Haute Rabine,Pacé,48.16992161,-1.78800014,,,0
3144,3144,Opéra,Pacé,48.14098531,-1.76618221,,,0
3145,3145,Touche Champagne,Pacé,48.17999367,-1.8016791,,,0
3146,3146,Touche Champagne,Pacé,48.18007473,-1.80190215,,,0
3159,3159,Centre scolaire Pacé,Pacé,48.15237318,-1.77155099,,,0
3162,3162,Collèges Pacé,Pacé,48.154241,-1.77147,,,0
3201,3201,Fort Joual,Orgères,47.96978577,-1.64606293,,,0
3202,3202,Frogerais,Orgères,47.97535633,-1.65131769,,,0
3203,3203,Petite Rochelle,Orgères,47.97625763,-1.65746531,,,0
3204,3204,Télégraphe,Orgères,47.98326977,-1.66000223,,,0
3205,3205,Petite Rochelle,Orgères,47.97611711,-1.65714416,,,0
3206,3206,Frogerais,Orgères,47.97543073,-1.65239827,,,0
3207,3207,Fort Joual,Orgères,47.96965315,-1.6457694,,,0
3208,3208,Chateaubriand,Orgères,47.99395077,-1.66549531,,,0
3209,3209,Surcouf,Orgères,47.99249678,-1.66873811,,,0
3210,3210,Coteau,Orgères,47.99502136,-1.67075631,,,0
3211,3211,Groupe Scolaire,Orgères,47.99730201,-1.66850378,,,0
3212,3212,Levant,Orgères,48.00074048,-1.66681908,,,0
3213,3213,Plardière,Orgères,48.00907966,-1.66635078,,,0
3216,3216,Plardière,Orgères,48.00913379,-1.66637462,,,0
3217,3217,Levant,Orgères,48.00045136,-1.66706223,,,0
3218,3218,Groupe Scolaire,Orgères,47.99689445,-1.66900508,,,0
3219,3219,Coteau,Orgères,47.99494129,-1.67090261,,,0
3220,3220,Surcouf,Orgères,47.99225073,-1.66789719,,,0
3221,3221,Chateaubriand,Orgères,47.99372623,-1.6652472,,,0
3225,3225,ZA L'Hermitière,Orgères,47.96229367,-1.68721291,,,0
3245,3245,L'Hermitière Village,Orgères,47.96434879,-1.68171763,,,0
3246,3246,Parking scolaire Récipon,Orgères,48.0023863,-1.66889107,,,0
3248,3248,ZA L'Hermitière,Orgères,47.96224696,-1.68732337,,,0
3249,3249,Orgerblon,Orgères,48.01492814,-1.66383754,,,0
3250,3250,Orgerblon,Orgères,48.01492799,-1.66396872,,,0
3301,3301,Landelles,Thorigné-Fouillard,48.15515021,-1.57316318,,,0
3302,3302,Thorigné Mairie,Thorigné-Fouillard,48.1530775,-1.57942222,,,0
3304,3304,Anne de Bretagne,Thorigné-Fouillard,48.15563878,-1.580776,,,0
3305,3305,Bocage,Thorigné-Fouillard,48.15897926,-1.57970534,,,0
3306,3306,Juteauderies,Thorigné-Fouillard,48.16417683,-1.57932113,,,0
3307,3307,Fouillard,Thorigné-Fouillard,48.16041314,-1.58594602,,,0
3308,3308,Placis Vert,Thorigné-Fouillard,48.17437994,-1.60223928,,,0
3309,3309,Portail,Thorigné-Fouillard,48.15626165,-1.59233418,,,0
3310,3310,Portail,Thorigné-Fouillard,48.15630543,-1.59213593,,,0
3311,3311,Fouillard,Thorigné-Fouillard,48.16050547,-1.58565766,,,0
3312,3312,Juteauderies,Thorigné-Fouillard,48.16302115,-1.57914001,,,0
3313,3313,Bocage,Thorigné-Fouillard,48.15918482,-1.57975012,,,0
3314,3314,Anne de Bretagne,Thorigné-Fouillard,48.15594837,-1.58069511,,,0
3315,3315,Thorigné Mairie,Thorigné-Fouillard,48.15354799,-1.5798402,,,0
3316,3316,Saint-Etienne,Thorigné-Fouillard,48.13215303,-1.59643107,,,0
3317,3317,Pâtis du Moulinet,Thorigné-Fouillard,48.14105238,-1.57365219,,,0
3318,3318,Pâtis du Moulinet,Thorigné-Fouillard,48.14093339,-1.57346681,,,0
3319,3319,Pâtis du Moulinet,Thorigné-Fouillard,48.14170805,-1.5774259,,,0
3320,3320,Pâtis du Moulinet,Thorigné-Fouillard,48.14181689,-1.57740841,,,0
3321,3321,Fouillard,Thorigné-Fouillard,48.16041469,-1.58706433,,,0
3322,3322,Curien,Thorigné-Fouillard,48.1492763,-1.57750308,,,0
3323,3323,Curien,Thorigné-Fouillard,48.14928986,-1.57715406,,,0
3401,3401,Parc des Sports,Nouvoitou,48.04139981,-1.55336797,,,0
3402,3402,Langlois,Nouvoitou,48.04065867,-1.55015895,,,0
3403,3403,Chêne Centenaire,Nouvoitou,48.04021884,-1.54194902,,,0
3404,3404,Menault,Nouvoitou,48.0412779,-1.54463411,,,0
3405,3405,Eclosel,Nouvoitou,48.04453229,-1.56162229,,,0
3406,3406,Eclosel,Nouvoitou,48.04445715,-1.56146795,,,0
3407,3407,Grée Barel,Nouvoitou,48.04240224,-1.54982505,,,0
3408,3408,Chêne Centenaire,Nouvoitou,48.04042496,-1.54198016,,,0
3409,3409,Menault,Nouvoitou,48.04141632,-1.54525086,,,0
3410,3410,Langlois,Nouvoitou,48.0409078,-1.54977715,,,0
3411,3411,Crotigné,Nouvoitou,48.03103082,-1.55926209,,,0
3412,3412,La Croix de l'Epine,Nouvoitou,48.02930455,-1.56426021,,,0
3413,3413,La Drouais,Nouvoitou,48.024052,-1.57323994,,,0
3414,3414,La Jaunais,Saint-Armel,48.01318314,-1.57063486,,,0
3415,3415,La Jaille,Saint-Armel,48.01260018,-1.55732504,,,0
3416,3416,Le Petit Beauvais,Nouvoitou,48.01195274,-1.5458774,,,0
3417,3417,Epron,Nouvoitou,48.01509711,-1.53961831,,,0
3418,3418,Le Tertronais,Nouvoitou,48.02183302,-1.54725023,,,0
3419,3419,L'Ourmais,Nouvoitou,48.02899022,-1.55143991,,,0
3500,3500,Silandière,Montgermont,48.16399131,-1.73170413,,,0
3501,3501,Fougerolle,Montgermont,48.15713428,-1.72329993,,,0
3502,3502,Pierre Texier,Montgermont,48.15565719,-1.72061072,,,0
3503,3503,Montgermont Mairie,Montgermont,48.15574059,-1.71658864,,,0
3504,3504,Courtines,Montgermont,48.15726126,-1.71446656,,,0
3505,3505,Belle Epine,Montgermont,48.15531129,-1.7108321,,,0
3506,3506,Décoparc,Montgermont,48.15311386,-1.706642,,,0
3507,3507,Vizeule,Montgermont,48.14897164,-1.70405003,,,0
3508,3508,Vizeule,Montgermont,48.14826699,-1.70363701,,,0
3509,3509,Métrie,Montgermont,48.15288114,-1.70885747,,,0
3510,3510,Belle Epine,Montgermont,48.15558798,-1.71082246,,,0
3511,3511,Courtines,Montgermont,48.15733411,-1.71460655,,,0
3512,3512,Montgermont Mairie,Montgermont,48.15567996,-1.71663805,,,0
3513,3513,Pierre Texier,Montgermont,48.15568596,-1.72068225,,,0
3514,3514,Fougerolle,Montgermont,48.15717858,-1.7233011,,,0
3515,3515,Silandière,Montgermont,48.16271981,-1.73059303,,,0
3516,3516,Décoparc,Montgermont,48.15430662,-1.70724683,,,0
3601,3601,La Renardière,Parthenay-de-Bretagne,48.18347898,-1.8357373,,,0
3602,3602,Parthenay Mairie,Parthenay-de-Bretagne,48.19206996,-1.83124343,,,0
3603,3603,Clos des Tilleuls,Parthenay-de-Bretagne,48.19169642,-1.82725543,,,0
3604,3604,La Noë,Parthenay-de-Bretagne,48.19130065,-1.82459016,,,0
3605,3605,Placis de la Touche,Parthenay-de-Bretagne,48.19000461,-1.82079103,,,0
3606,3606,Le Reuvre,Parthenay-de-Bretagne,48.1863579,-1.81649429,,,0
3611,3611,Le Reuvre,Parthenay-de-Bretagne,48.18636688,-1.81649511,,,0
3612,3612,Placis de la Touche,Parthenay-de-Bretagne,48.18991366,-1.82014907,,,0
3613,3613,La Noë,Parthenay-de-Bretagne,48.19124712,-1.82435607,,,0
3614,3614,Clos des Tilleuls,Parthenay-de-Bretagne,48.19177543,-1.82774803,,,0
3615,3615,Parthenay Mairie,Parthenay-de-Bretagne,48.19212549,-1.83142977,,,0
3616,3616,La Renardière,Parthenay-de-Bretagne,48.18330757,-1.83617991,,,0
3705,3705,Saint-Gilles Centre,Saint-Gilles,48.15297271,-1.82975865,,,0
3707,3707,Pont aux Moines,Saint-Gilles,48.15070786,-1.82521706,,,0
3708,3708,Vigne,Saint-Gilles,48.15283954,-1.82071011,,,0
3709,3709,Fouaye,Saint-Gilles,48.15291812,-1.80907719,,,0
3710,3710,Fouaye,Saint-Gilles,48.15356445,-1.81046986,,,0
3711,3711,Vigne,Saint-Gilles,48.15413317,-1.81993908,,,0
3712,3712,Pont aux Moines,Saint-Gilles,48.15067998,-1.82479689,,,0
3714,3714,Saint-Gilles Centre,Saint-Gilles,48.15249376,-1.82982513,,,0
3715,3715,Clos des Cerisiers,Saint-Gilles,48.15374478,-1.83403418,,,0
3717,3717,Maison Neuve,Saint-Gilles,48.15398549,-1.83760002,,,0
3723,3723,Maison Neuve,Saint-Gilles,48.15406034,-1.83781467,,,0
3724,3724,Clos des Cerisiers,Saint-Gilles,48.15384342,-1.83404162,,,0
3751,3751,ZI Ouest,Vezin-le-Coquet,48.10740152,-1.73924668,,,0
3752,3752,Trois Marches,Vezin-le-Coquet,48.10474061,-1.73906178,,,0
3753,3753,Trois Marches,Vezin-le-Coquet,48.10575046,-1.74001431,,,0
3754,3754,Haie de Terre,Vezin-le-Coquet,48.12095823,-1.77254707,,,0
3755,3755,Vallée,Vezin-le-Coquet,48.12026434,-1.765416,,,0
3756,3756,Lion d'Or,Vezin-le-Coquet,48.1190811,-1.76101447,,,0
3757,3757,Vezin Centre,Vezin-le-Coquet,48.11889936,-1.75681107,,,0
3758,3758,Tertre,Vezin-le-Coquet,48.11838591,-1.74249418,,,0
3759,3759,Champ Noël,Vezin-le-Coquet,48.11764929,-1.73167146,,,0
3760,3760,Champ Noël,Vezin-le-Coquet,48.11770317,-1.73100316,,,0
3761,3761,Tertre,Vezin-le-Coquet,48.11835117,-1.74111786,,,0
3762,3762,Vezin Centre,Vezin-le-Coquet,48.11930667,-1.75476097,,,0
3763,3763,Lion d'Or,Vezin-le-Coquet,48.11927823,-1.76148999,,,0
3764,3764,Vallée,Vezin-le-Coquet,48.12036615,-1.76557329,,,0
3765,3765,Haie de Terre,Vezin-le-Coquet,48.12097559,-1.7716735,,,0
3766,3766,Trois Marches,Vezin-le-Coquet,48.10499211,-1.74065229,,,0
3767,3767,Fresnot,Vezin-le-Coquet,48.12295075,-1.75536591,,,0
3768,3768,Marais,Vezin-le-Coquet,48.10412708,-1.73593806,,,0
3769,3769,Marais,Vezin-le-Coquet,48.10421313,-1.73603999,,,0
3770,3770,Champs Bleus,Vezin-le-Coquet,48.11899882,-1.74937216,,,0
3771,3771,Champs Bleus,Vezin-le-Coquet,48.11912564,-1.74955086,,,0
3801,3801,Centre de Loisirs,Bourgbarré,47.99009528,-1.6138293,,,0
3802,3802,Bourgbarré Mairie,Bourgbarré,47.99488016,-1.61426966,,,0
3803,3803,La Motte,Bourgbarré,47.99607325,-1.61723784,,,0
3804,3804,La Basse Erable,Bourgbarré,47.99514007,-1.62423419,,,0
3805,3805,Perelle,Bourgbarré,47.99450137,-1.6315247,,,0
3806,3806,Perelle,Bourgbarré,47.99442685,-1.63135702,,,0
3807,3807,Basse Erable,Bourgbarré,47.99512362,-1.62373584,,,0
3808,3808,La Motte,Bourgbarré,47.99590317,-1.61766621,,,0
3809,3809,Bourgbarré Mairie,Bourgbarré,47.99476166,-1.61410331,,,0
3810,3810,Moc Souris,Bourgbarré,47.95999343,-1.63242683,,,0
3811,3811,Sept Fours,Bourgbarré,47.95954125,-1.63703108,,,0
3812,3812,Sept Fours,Bourgbarré,47.95956133,-1.63697915,,,0
3813,3813,Moc Souris,Bourgbarré,47.96011491,-1.63140399,,,0
3814,3814,Rue de Rennes,Bourgbarré,47.99763622,-1.61921419,,,0
3815,3815,Rue de Rennes,Bourgbarré,47.99753101,-1.61890953,,,0
3816,3816,Launay Garnier,Bourgbarré,48.00075089,-1.59448989,,,0
3817,3817,Launay Garnier,Bourgbarré,48.00091583,-1.59465195,,,0
3822,3822,La Fretais,Bourgbarré,47.99016515,-1.62350471,,,0
3851,3851,Mordelles Pâtis,Mordelles,48.07460255,-1.85367611,,,0
3852,3852,Mordelles Eglise,Mordelles,48.07194171,-1.84998802,,,0
3853,3853,Mordelles Mairie,Mordelles,48.07371138,-1.84642407,,,0
3854,3854,Mordelles Lilas,Mordelles,48.07584083,-1.8422202,,,0
3855,3855,Gretay,Mordelles,48.07771885,-1.83754903,,,0
3856,3856,Croix Ignon,Mordelles,48.08132274,-1.82684642,,,0
3857,3857,Grande Fontaine,Mordelles,48.08396909,-1.81374094,,,0
3858,3858,Vivier des Bois,Mordelles,48.08822018,-1.79882901,,,0
3859,3859,Vivier des Bois,Mordelles,48.0881174,-1.79980194,,,0
3860,3860,Grande Fontaine,Mordelles,48.08361464,-1.81579413,,,0
3861,3861,Croix Ignon,Mordelles,48.08139625,-1.82681277,,,0
3862,3862,Gretay,Mordelles,48.07780007,-1.83732775,,,0
3863,3863,Mordelles Lilas,Mordelles,48.0755735,-1.84280109,,,0
3864,3864,Mordelles Mairie,Mordelles,48.07357073,-1.84677438,,,0
3865,3865,Mordelles Eglise,Mordelles,48.07185149,-1.85020843,,,0
3869,3869,Mordelles Pâtis,Mordelles,48.07393624,-1.85365528,,,0
3901,3901,Bois Esnault,Pont-Péan,47.99990894,-1.69696794,,,0
3902,3902,Caliorne,Pont-Péan,48.00647989,-1.69857206,,,0
3903,3903,Mouton Blanc,Pont-Péan,48.01062006,-1.70099518,,,0
3904,3904,Chemin Vert,Pont-Péan,48.01295576,-1.70300304,,,0
3905,3905,Pont Péan Mairie,Pont-Péan,48.01057926,-1.70697013,,,0
3906,3906,Rivaudière,Pont-Péan,48.0136449,-1.70763245,,,0
3907,3907,Fontaine Blanche,Pont-Péan,48.01629245,-1.70567784,,,0
3908,3908,Renaissance,Pont-Péan,48.01989989,-1.70699303,,,0
3909,3909,Renaissance,Pont-Péan,48.01988823,-1.70705918,,,0
3910,3910,Fontaine Blanche,Pont-Péan,48.0169427,-1.7051982,,,0
3911,3911,Rivaudière,Pont-Péan,48.01367131,-1.70764824,,,0
3912,3912,Pont Péan Mairie,Pont-Péan,48.01082475,-1.706468,,,0
3913,3913,Chemin Vert,Pont-Péan,48.01296314,-1.703044,,,0
3914,3914,Mouton Blanc,Pont-Péan,48.01038435,-1.70102798,,,0
3915,3915,Caliorne,Pont-Péan,48.00553207,-1.69815207,,,0
3918,3918,Rue des Oiseaux,Pont-Péan,48.00712012,-1.69912904,,,0
3924,3924,Bois Esnault,Pont-Péan,47.99991179,-1.69692096,,,0
3951,3951,Cropy,Saint-Sulpice-la-Forêt,48.22528095,-1.57037306,,,0
3952,3952,Chesnais,Saint-Sulpice-la-Forêt,48.223221,-1.5763179,,,0
3953,3953,Bourg,Saint-Sulpice-la-Forêt,48.21792113,-1.58142255,,,0
3954,3954,Terrain des Sports,Saint-Sulpice-la-Forêt,48.21479222,-1.58657706,,,0
3955,3955,Tronchay,Saint-Sulpice-la-Forêt,48.21169142,-1.59075734,,,0
3956,3956,Oliverie,Saint-Sulpice-la-Forêt,48.1998183,-1.59754322,,,0
3957,3957,Oliverie,Saint-Sulpice-la-Forêt,48.19743651,-1.59945215,,,0
3958,3958,Lande Saint Denis,Saint-Sulpice-la-Forêt,48.20320481,-1.59506102,,,0
3959,3959,Tronchay,Saint-Sulpice-la-Forêt,48.21179703,-1.59059123,,,0
3960,3960,Terrain des Sports,Saint-Sulpice-la-Forêt,48.2146956,-1.58674396,,,0
3961,3961,Bourg,Saint-Sulpice-la-Forêt,48.21773209,-1.58139746,,,0
3962,3962,Chesnais,Saint-Sulpice-la-Forêt,48.22315211,-1.57693236,,,0
3964,3964,Lande Saint Denis,Saint-Sulpice-la-Forêt,48.20387938,-1.59463442,,,0
4001,4001,Timonière,Acigné,48.13701918,-1.52637517,,,0
4002,4002,Verdaudais,Acigné,48.13696093,-1.53304901,,,0
4003,4003,Acigné Mairie,Acigné,48.13419518,-1.53491257,,,0
4004,4004,Foyer,Acigné,48.13391306,-1.53776926,,,0
4005,4005,Lande,Acigné,48.13397096,-1.54188098,,,0
4006,4006,Pont d'Ohin,Acigné,48.13719872,-1.54956474,,,0
4007,4007,Boulais,Acigné,48.13905954,-1.55878783,,,0
4008,4008,Boulais,Acigné,48.13908696,-1.55947698,,,0
4009,4009,Pont d'Ohin,Acigné,48.13686615,-1.54860696,,,0
4010,4010,Lande,Acigné,48.13448302,-1.54192503,,,0
4011,4011,Foyer,Acigné,48.13388288,-1.53762999,,,0
4012,4012,Acigné Mairie,Acigné,48.13417021,-1.5347181,,,0
4013,4013,Verdaudais,Acigné,48.13716321,-1.53294519,,,0
4053,4053,Métairie,La Chapelle-des-Fougeretz,48.17949446,-1.72926703,,,0
4054,4054,Mairie,La Chapelle-des-Fougeretz,48.17710926,-1.73209913,,,0
4055,4055,Viennais,La Chapelle-des-Fougeretz,48.17409345,-1.73514392,,,0
4056,4056,Sénestrais,La Chapelle-des-Fougeretz,48.17031777,-1.73623348,,,0
4057,4057,Sénestrais,La Chapelle-des-Fougeretz,48.16992222,-1.73598235,,,0
4058,4058,Viennais,La Chapelle-des-Fougeretz,48.17395236,-1.73523531,,,0
4059,4059,Mairie,La Chapelle-des-Fougeretz,48.17663681,-1.7328654,,,0
4060,4060,Métairie,La Chapelle-des-Fougeretz,48.1794217,-1.72905833,,,0
4062,4062,La Brosse,La Chapelle-des-Fougeretz,48.17676429,-1.72204091,,,0
4066,4066,Quatre Vents,La Chapelle-des-Fougeretz,48.16859383,-1.74298296,,,0
4067,4067,Quatre Vents,La Chapelle-des-Fougeretz,48.16897619,-1.74251034,,,0
4069,4069,Besneraie,La Chapelle-des-Fougeretz,48.18312865,-1.72600138,,,0
4070,4070,Besneraie,La Chapelle-des-Fougeretz,48.18301608,-1.72638573,,,0
4101,4101,Corps-Nuds Gare,Corps-Nuds,47.98501009,-1.57628621,,,0
4102,4102,Huberdières,Corps-Nuds,47.98240342,-1.58071998,,,0
4103,4103,Place de Kildare,Corps-Nuds,47.97775083,-1.58490906,,,0
4104,4104,Corps-Nuds Mairie,Corps-Nuds,47.97932856,-1.58790538,,,0
4105,4105,Chêne Hervé,Corps-Nuds,47.98205291,-1.58831596,,,0
4108,4108,Chêne Hervé,Corps-Nuds,47.98189705,-1.58838301,,,0
4109,4109,Corps-Nuds Mairie,Corps-Nuds,47.97901569,-1.58783799,,,0
4110,4110,Place de Kildare,Corps-Nuds,47.97776379,-1.58550091,,,0
4111,4111,Huberdières,Corps-Nuds,47.98259928,-1.58032069,,,0
4112,4112,Corps-Nuds Gare,Corps-Nuds,47.98528795,-1.57609539,,,0
4151,4151,Anjou,Brécé,48.10975091,-1.48097238,,,0
4152,4152,Mainguère,Brécé,48.10905522,-1.47841022,,,0
4153,4153,Saules,Brécé,48.10706253,-1.47914293,,,0
4154,4154,Provence,Brécé,48.10749969,-1.48292686,,,0
4155,4155,Destiers,Brécé,48.10758916,-1.48614508,,,0
4156,4156,Pâtis,Brécé,48.10941494,-1.50301501,,,0
4157,4157,Pâtis,Brécé,48.10929687,-1.50327411,,,0
4158,4158,Destiers,Brécé,48.10759324,-1.48603777,,,0
4159,4159,Provence,Brécé,48.10748041,-1.48261,,,0
4160,4160,Saules,Brécé,48.10721432,-1.47846948,,,0
4161,4161,Mainguère,Brécé,48.10901928,-1.47840717,,,0
4162,4162,Turbanière,Brécé,48.1084445,-1.50835582,,,0
4163,4163,Turbanière,Brécé,48.10829229,-1.50738732,,,0
4201,4201,Croix Blanche,Chavagne,48.0519556,-1.79762199,,,0
4202,4202,Calvaire,Chavagne,48.05201225,-1.79070221,,,0
4203,4203,Alfred de Musset,Chavagne,48.05509706,-1.79000007,,,0
4204,4204,Avenir,Chavagne,48.05399506,-1.78384914,,,0
4205,4205,Grippay,Chavagne,48.05814163,-1.77631699,,,0
4206,4206,Mare Doux,Chavagne,48.0632306,-1.77243271,,,0
4207,4207,Mare Doux,Chavagne,48.063395,-1.77238031,,,0
4208,4208,Grippay,Chavagne,48.05776111,-1.7763633,,,0
4209,4209,Avenir,Chavagne,48.05408189,-1.78370908,,,0
4210,4210,Alfred de Musset,Chavagne,48.05473857,-1.7901693,,,0
4211,4211,Calvaire,Chavagne,48.05245322,-1.79050012,,,0
4252,4252,Rochers,La Chapelle-Thouarault,48.12305645,-1.86073456,,,0
4253,4253,Piardière,La Chapelle-Thouarault,48.1219735,-1.84615443,,,0
4254,4254,Grippière,La Chapelle-Thouarault,48.12128913,-1.83758202,,,0
4255,4255,Grippière,La Chapelle-Thouarault,48.12140881,-1.83774109,,,0
4256,4256,Piardière,La Chapelle-Thouarault,48.1220314,-1.84628093,,,0
4257,4257,Rochers,La Chapelle-Thouarault,48.1230881,-1.86080178,,,0
4264,4264,Place de la Mairie,La Chapelle-Thouarault,48.12306894,-1.86589939,,,0
4267,4267,Ville aux Archers,La Chapelle-Thouarault,48.12259474,-1.86836565,,,0
4269,4269,Place de la Mairie,La Chapelle-Thouarault,48.12309875,-1.86605346,,,0
4301,4301,Hautière,L'Hermitage,48.12299286,-1.82175531,,,0
4302,4302,CAT La Hautière,L'Hermitage,48.11889327,-1.82257926,,,0
4303,4303,L'Hermitage Gare,L'Hermitage,48.12384912,-1.81779401,,,0
4304,4304,L'Hermitage Eglise,L'Hermitage,48.12551567,-1.81606092,,,0
4305,4305,Village,L'Hermitage,48.12464354,-1.81159175,,,0
4306,4306,Clairefontaine,L'Hermitage,48.12320965,-1.8063041,,,0
4307,4307,Clairefontaine,L'Hermitage,48.1233135,-1.80685214,,,0
4308,4308,Village,L'Hermitage,48.12499565,-1.81290303,,,0
4310,4310,L'Hermitage Gare,L'Hermitage,48.12373585,-1.81791833,,,0
4311,4311,Hautière,L'Hermitage,48.12290007,-1.82093895,,,0
4315,4315,Noë Biche,L'Hermitage,48.12294892,-1.80230832,,,0
4316,4316,Noë Biche,L'Hermitage,48.12283506,-1.80134198,,,0
4317,4317,L'Hermitage Gare,L'Hermitage,48.1234384,-1.81891663,,,0
4322,4322,L'Hermitage Eglise,L'Hermitage,48.12548,-1.81571,,,0
4351,4351,Parc d'Activités,Saint-Erblon,48.01725669,-1.66042889,,,0
4352,4352,Champ Mulon,Saint-Erblon,48.01883453,-1.65769241,,,0
4353,4353,Paul Féval,Saint-Erblon,48.01766237,-1.65451232,,,0
4354,4354,Paul Féval,Saint-Erblon,48.01764653,-1.65445718,,,0
4355,4355,Champ Mulon,Saint-Erblon,48.01883506,-1.65767902,,,0
4356,4356,Croix du Pigeonnet,Saint-Erblon,48.01707558,-1.66458685,,,0
4357,4357,Croix du Pigeonnet,Saint-Erblon,48.01706279,-1.66474597,,,0
4358,4358,Croix Faucheux,Saint-Erblon,48.01767454,-1.64942104,,,0
4359,4359,Leuzières,Saint-Erblon,48.02152221,-1.65356188,,,0
4360,4360,Leuzières,Saint-Erblon,48.02156395,-1.65364618,,,0
4361,4361,Croix Faucheux,Saint-Erblon,48.01776753,-1.64957701,,,0
4362,4362,Alexandre Gilois,Saint-Erblon,48.01619592,-1.65151734,,,0
4363,4363,Alexandre Gilois,Saint-Erblon,48.01632313,-1.6513413,,,0
4373,4373,Le Plessix,Saint-Erblon,48.01467308,-1.64600473,,,0
4401,4401,Le Verger Eglise,Le Verger,48.06992252,-1.93239808,,,0
4402,4402,Bouvrais,Le Verger,48.07025095,-1.92907905,,,0
4403,4403,Bouvrais,Le Verger,48.07002136,-1.93025491,,,0
4408,4408,Le Verger Eglise,Le Verger,48.06999661,-1.93235118,,,0
4451,4451,Clairville,Clayes,48.18086288,-1.85048693,,,0
4452,4452,Croix Simon,Clayes,48.18138007,-1.85347313,,,0
4453,4453,Clayes Centre,Clayes,48.17601811,-1.85254844,,,0
4454,4454,Terseul,Clayes,48.18094994,-1.84486037,,,0
4455,4455,Terseul,Clayes,48.18091858,-1.84496532,,,0
4456,4456,La Tour,Clayes,48.1743824,-1.846508,,,0
4502,4502,Gévezé Mairie,Gévezé,48.22104867,-1.78874652,,,0
4503,4503,Flume,Gévezé,48.21863623,-1.78399508,,,0
4504,4504,Flume,Gévezé,48.21830476,-1.78327707,,,0
4505,4505,Gévezé Mairie,Gévezé,48.22096598,-1.78811849,,,0
4507,4507,Cheval Blanc,Gévezé,48.22178274,-1.80232719,,,0
4508,4508,Coualeuc,Gévezé,48.22448225,-1.80078454,,,0
4509,4509,Coualeuc,Gévezé,48.22464461,-1.80044931,,,0
4510,4510,Prés Verts,Gévezé,48.22361535,-1.79362989,,,0
4511,4511,Prés Verts,Gévezé,48.22397777,-1.79377074,,,0
4551,4551,Saint-Armel Eglise,Saint-Armel,48.0134184,-1.59096813,,,0
4552,4552,Saint-Armel Gare,Saint-Armel,48.01396709,-1.59426931,,,0
4553,4553,Lande du Jardin,Saint-Armel,48.01466942,-1.59829558,,,0
4554,4554,Lande du Jardin,Saint-Armel,48.01473229,-1.59840416,,,0
4555,4555,Saint-Armel Gare,Saint-Armel,48.01402453,-1.59440297,,,0
4601,4601,Chevaigné Mairie,Chevaigné,48.21171751,-1.63046022,,,0
4602,4602,Fonderies,Chevaigné,48.21431434,-1.62905651,,,0
4603,4603,Pommiers,Chevaigné,48.21095412,-1.62602395,,,0
4604,4604,Pommiers,Chevaigné,48.21008788,-1.62587418,,,0
4605,4605,Fonderies,Chevaigné,48.21442422,-1.62878295,,,0
4606,4606,Chevaigné Mairie,Chevaigné,48.21193254,-1.63026334,,,0
4607,4607,Chevaigné Gare,Chevaigné,48.20764802,-1.63080398,,,0
4608,4608,Chevaigné Gare,Chevaigné,48.20787045,-1.63064822,,,0
4609,4609,Chopinais,Chevaigné,48.19917578,-1.62757919,,,0
4610,4610,Chopinais,Chevaigné,48.19918212,-1.62764716,,,0
4652,4652,Chêne Vert,Cintré,48.10508252,-1.87271047,,,0
4653,4653,Saint-Melaine,Cintré,48.10342902,-1.86952936,,,0
4654,4654,Saint-Melaine,Cintré,48.10342337,-1.86944808,,,0
4700,4700,Point du Jour,Laillé,47.97843783,-1.71368821,,,0
4701,4701,Point du Jour,Laillé,47.97860622,-1.71298793,,,0
4702,4702,Orée du Bois,Laillé,47.97543276,-1.71711069,,,0
4703,4703,Orée du Bois,Laillé,47.9755072,-1.71717487,,,0
4704,4704,Laillé Eglise,Laillé,47.978117,-1.72041031,,,0
4705,4705,Laillé Eglise,Laillé,47.97798342,-1.71968327,,,0
4706,4706,Châtaigneraie,Laillé,47.9791901,-1.72431431,,,0
4707,4707,Châtaigneraie,Laillé,47.97928745,-1.72433103,,,0
4708,4708,Gingouillère,Laillé,47.98009235,-1.7309092,,,0
4709,4709,Bout de Lande,Laillé,47.97992591,-1.6930728,,,0
4710,4710,Bout de Lande,Laillé,47.97986539,-1.69315258,,,0
4711,4711,Estuaires,Laillé,47.97539368,-1.69140322,,,0
4712,4712,Estuaires,Laillé,47.97481571,-1.69135986,,,0
5036,5036,Italie,Rennes,48.08660108,-1.66872386,,,0
